name,federalState,latitude,longitude,type,segment,platforms,stationManagement,controlCenter,operator,operatorShort,regionalSector,delay,pureDelayNum,punctuality,pureDelay,handledTrains
Aachen Hbf,Nordrhein-Westfalen,50.7678,6.091499,Knotenbahnhof,Großstadtknoten,7.0,Düsseldorf,Duisburg Hbf,zweckverband-nahverkehr-rheinland-gmbh,NVR,RB West,-1.23153,286,0.53038,-2.62238,609
Aalen Hbf,Baden-Württemberg,48.841013,10.096271,Knotenbahnhof,Regionaler Knoten,5.0,Ulm,Stuttgart Hbf,nahverkehrsgesellschaft-baden-wurttemberg-mbh,NVBW,RB Südwest,0.40106,802,0.15132,0.47257,945
Altenbeken,Nordrhein-Westfalen,51.766433,8.943319,Knotenbahnhof,Regionaler Knoten,6.0,Bielefeld,Dortmund Hbf,zweckverband-nahverkehr-westfalen-lippe,NWL,RB West,-0.39933,263,0.11745,-0.45247,298
Ansbach,Bayern,49.298032,10.578239,Knotenbahnhof,Regionaler Knoten,7.0,Nürnberg,Nürnberg Hbf,bayerische-eisenbahngesellschaft-mbh,BEG,RB Süd,0.52444,1018,0.09511,0.57957,1125
Aschaffenburg Hbf,Bayern,49.980557,9.143697,Knotenbahnhof,Regionaler Knoten,8.0,Nordfranken,Würzburg Hbf,bayerische-eisenbahngesellschaft-mbh,BEG,RB Süd,0.86176,1757,0.2114,1.09277,2228
Augsburg Hbf,Bayern,48.365441,10.88557,Knotenbahnhof,Großstadtknoten,15.0,Augsburg,München Hbf,bayerische-eisenbahngesellschaft-mbh,BEG,RB Süd,0.68243,3779,0.22323,0.87854,4865
Aulendorf,Baden-Württemberg,47.953052,9.644046,Knotenbahnhof,Regionaler Knoten,5.0,Friedrichshafen,Stuttgart Hbf,nahverkehrsgesellschaft-baden-wurttemberg-mbh,NVBW,RB Südwest,0.0,0,1.0,,60
Bad Hersfeld,Hessen,50.869632,9.716182,Knotenbahnhof,Regionaler Knoten,5.0,Kassel,Kassel-Wilhelmshöhe,nordhessischer-verkehrsverbund-mbh,NVV,RB Mitte,0.1448,550,0.4655,0.27091,1029
Bamberg,Bayern,49.900759,10.899489,Knotenbahnhof,Regionaler Knoten,7.0,Nordfranken,Nürnberg Hbf,bayerische-eisenbahngesellschaft-mbh,BEG,RB Süd,0.3556,1861,0.2556,0.4777,2500
Bensheim,Hessen,49.681329,8.616717,Knotenbahnhof,Regionaler Knoten,4.0,Darmstadt,Frankfurt (Main) Hbf,verkehrsverbund-rhein-neckar-gmbh,VRN,RB Mitte,-0.027,242,0.758,-0.11157,1000
Bielefeld Hbf,Nordrhein-Westfalen,52.029261,8.532722,Knotenbahnhof,Großstadtknoten,7.0,Bielefeld,Dortmund Hbf,zweckverband-nahverkehr-westfalen-lippe,NWL,RB West,0.37089,4337,0.10835,0.41596,4864
Schwerte (Ruhr),Nordrhein-Westfalen,51.442281,7.55896,Knotenbahnhof,Regionaler Knoten,6.0,Dortmund,Dortmund Hbf,zweckverband-nahverkehr-westfalen-lippe,NWL,RB West,0.24891,131,0.42795,0.43511,229
Bingen (Rhein) Hbf,Rheinland-Pfalz,49.968729,7.884263,Knotenbahnhof,Regionaler Knoten,6.0,Mainz,Mainz Hbf,zweckverband-schienenpersonennahverkehr-rheinland-pfalz-sud,ZPNV Süd,RB Mitte,0.09194,436,0.38331,0.14908,707
Bochum Hbf,Nordrhein-Westfalen,51.478609,7.223275,Knotenbahnhof,Großstadtknoten,8.0,Essen,Essen Hbf,zweckverband-verkehrsverbund-rhein-ruhr-aor,VRR,RB West,0.16336,3499,0.34525,0.2495,5344
Bonn Hbf,Nordrhein-Westfalen,50.732008,7.097136,Knotenbahnhof,Großstadtknoten,5.0,Köln,Köln Hbf,zweckverband-nahverkehr-rheinland-gmbh,NVR,RB West,-0.71557,1709,0.48832,-1.39848,3340
Boppard Hbf,Rheinland-Pfalz,50.231413,7.586102,Zubringerbahnhof,Regionaler Zubringer,3.0,Koblenz,Mainz Hbf,zweckverband-schienenpersonennahverkehr-rheinland-pfalz-nord,ZVRP Nord,RB Mitte,-0.6,37,0.38333,-0.97297,60
Braunschweig Hbf,Niedersachsen,52.252218,10.540295,Knotenbahnhof,Großstadtknoten,8.0,Braunschweig / Göttingen,Hannover Hbf,regionalverband-grossraum-braunschweig,RVB,RB Nord,0.22677,1959,0.47239,0.42981,3713
Bremen Hbf,Bremen,53.083481,8.813834,Metropolbahnhof,Metropolbahnhof,9.0,Bremen / Osnabrück,Bremen Hbf,senat-fur-umwelt-bau-verkehr-und-europa-bremen,SUBV,RB Nord,0.59309,2739,0.20447,0.74553,3443
Bremerhaven Hbf,Bremen,53.534912,8.599555,Knotenbahnhof,Regionaler Knoten,4.0,Bremen / Osnabrück,Bremen Hbf,senat-fur-umwelt-bau-verkehr-und-europa-bremen,SUBV,RB Nord,0.34286,66,0.37143,0.54545,105
Bruchsal,Baden-Württemberg,49.124622,8.589649,Knotenbahnhof,Regionaler Knoten,8.0,Karlsruhe,Mannheim Hbf,nahverkehrsgesellschaft-baden-wurttemberg-mbh,NVBW,RB Südwest,-0.02104,544,0.50229,-0.04228,1093
Buchloe,Bayern,48.033723,10.716217,Knotenbahnhof,Regionaler Knoten,5.0,Augsburg,München Hbf,bayerische-eisenbahngesellschaft-mbh,BEG,RB Süd,-0.18333,101,0.15833,-0.21782,120
Büchen,Schleswig-Holstein,53.474972,10.623298,Knotenbahnhof,Regionaler Knoten,4.0,Schleswig-Holstein,Kiel Hbf,nahverkehrsverbund-schleswig-holstein-gmbh,NAH.SH,RB Nord,0.18559,333,0.63646,0.51051,916
Bünde (Westf),Nordrhein-Westfalen,52.202075,8.573876,Knotenbahnhof,Regionaler Knoten,3.0,Bielefeld,Dortmund Hbf,zweckverband-nahverkehr-westfalen-lippe,NWL,RB West,0.35294,105,0.11765,0.4,119
Celle,Niedersachsen,52.6204548,10.062468,Knotenbahnhof,Regionaler Knoten,6.0,Hannover,Hannover Hbf,landesnahverkehrsgesellschaft-niedersachsen-mbh,LNVG,RB Nord,0.08398,830,0.59709,0.20843,2060
Crailsheim,Baden-Württemberg,49.137872,10.064326,Knotenbahnhof,Regionaler Knoten,4.0,Ulm,Stuttgart Hbf,nahverkehrsgesellschaft-baden-wurttemberg-mbh,NVBW,RB Südwest,-0.1672,836,0.11534,-0.189,945
Darmstadt Hbf,Hessen,49.872503,8.629636,Knotenbahnhof,Großstadtknoten,11.0,Darmstadt,Frankfurt (Main) Hbf,rhein-main-verkehrsverbund-gmbh,RMV,RB Mitte,-0.04262,280,0.77049,-0.18571,1220
Delmenhorst,Niedersachsen,53.052792,8.629758,Knotenbahnhof,Regionaler Knoten,3.0,Bremen / Osnabrück,Bremen Hbf,landesnahverkehrsgesellschaft-niedersachsen-mbh,LNVG,RB Nord,-0.30025,970,0.20427,-0.37732,1219
Singen (Hohentwiel),Baden-Württemberg,47.758438,8.840383,Knotenbahnhof,Regionaler Knoten,9.0,Friedrichshafen,Stuttgart Hbf,nahverkehrsgesellschaft-baden-wurttemberg-mbh,NVBW,RB Südwest,-0.51238,163,0.68952,-1.65031,525
Dillenburg,Hessen,50.734883,8.294088,Knotenbahnhof,Regionaler Knoten,5.0,Gießen,Kassel-Wilhelmshöhe,rhein-main-verkehrsverbund-gmbh,RMV,RB Mitte,0.40768,557,0.30979,0.59066,807
Soest,Nordrhein-Westfalen,51.578419,8.104589,Knotenbahnhof,Regionaler Knoten,3.0,Dortmund,Dortmund Hbf,zweckverband-nahverkehr-westfalen-lippe,NWL,RB West,-0.27517,276,0.07383,-0.2971,298
Donaueschingen,Baden-Württemberg,47.947786,8.498919,Knotenbahnhof,Regionaler Knoten,5.0,Freiburg,Freiburg (Breisgau) Hbf,nahverkehrsgesellschaft-baden-wurttemberg-mbh,NVBW,RB Südwest,-0.01156,25,0.85549,-0.08,173
Donauwörth,Bayern,48.714026,10.771443,Knotenbahnhof,Regionaler Knoten,7.0,Augsburg,München Hbf,bayerische-eisenbahngesellschaft-mbh,BEG,RB Süd,0.1424,762,0.18415,0.17454,934
Dortmund Hbf,Nordrhein-Westfalen,51.517896,7.45929,Metropolbahnhof,Metropolbahnhof,16.0,Dortmund,Dortmund Hbf,zweckverband-verkehrsverbund-rhein-ruhr-aor,VRR,RB West,-2.34839,6016,0.29215,-3.31765,8499
Düsseldorf Flughafen,Nordrhein-Westfalen,51.292009,6.786836,Knotenbahnhof,Großstadtknoten,4.0,Düsseldorf,Düsseldorf Hbf,zweckverband-verkehrsverbund-rhein-ruhr-aor,VRR,RB West,0.33455,1419,0.35412,0.51797,2197
Düren,Nordrhein-Westfalen,50.809517,6.482451,Knotenbahnhof,Regionaler Knoten,8.0,Düsseldorf,Duisburg Hbf,zweckverband-nahverkehr-rheinland-gmbh,NVR,RB West,0.06513,139,0.46743,0.1223,261
Düsseldorf Hbf,Nordrhein-Westfalen,51.219962,6.794319,Metropolbahnhof,Metropolbahnhof,16.0,Düsseldorf,Düsseldorf Hbf,zweckverband-verkehrsverbund-rhein-ruhr-aor,VRR,RB West,-0.61534,6347,0.39896,-1.02379,10560
Duisburg Hbf,Nordrhein-Westfalen,51.429785,6.775903,Metropolbahnhof,Metropolbahnhof,12.0,Duisburg,Duisburg Hbf,zweckverband-verkehrsverbund-rhein-ruhr-aor,VRR,RB West,0.327,5755,0.31643,0.47837,8419
Solingen Hbf,Nordrhein-Westfalen,51.160766,7.004187,Knotenbahnhof,Großstadtknoten,5.0,Düsseldorf,Düsseldorf Hbf,zweckverband-verkehrsverbund-rhein-ruhr-aor,VRR,RB West,0.12399,1815,0.62243,0.32837,4807
Straubing,Bayern,48.876978,12.574094,Knotenbahnhof,Regionaler Knoten,5.0,Regensburg,Nürnberg Hbf,bayerische-eisenbahngesellschaft-mbh,BEG,RB Süd,0.79167,65,0.45833,1.46154,120
Stuttgart Hbf,Baden-Württemberg,48.784084,9.181635,Metropolbahnhof,Metropolbahnhof,18.0,Stuttgart,Stuttgart Hbf,nahverkehrsgesellschaft-baden-wurttemberg-mbh,NVBW,RB Südwest,-2.08659,6005,0.24313,-2.75687,7934
Essen Hbf,Nordrhein-Westfalen,51.451355,7.014793,Metropolbahnhof,Metropolbahnhof,11.0,Essen,Essen Hbf,zweckverband-verkehrsverbund-rhein-ruhr-aor,VRR,RB West,-0.33779,5071,0.3353,-0.50818,7629
Eutingen im Gäu,Baden-Württemberg,48.479952,8.782236,Zubringerbahnhof,Regionaler Zubringer,3.0,Karlsruhe,Mannheim Hbf,nahverkehrsgesellschaft-baden-wurttemberg-mbh,NVBW,RB Südwest,0.01667,1,0.98333,1.0,60
Finnentrop,Nordrhein-Westfalen,51.173048,7.964563,Zubringerbahnhof,Regionaler Zubringer,4.0,Hagen,Düsseldorf Hbf,zweckverband-nahverkehr-westfalen-lippe,NWL,RB West,0.39003,469,0.19416,0.48401,582
Frankfurt (Main) Hbf,Hessen,50.107145,8.663789,Metropolbahnhof,Metropolbahnhof,29.0,Frankfurt a. M.,Frankfurt (Main) Hbf,rhein-main-verkehrsverbund-gmbh,RMV,RB Mitte,-0.59869,6439,0.32178,-0.88275,9494
Freiburg (Breisgau) Hbf,Baden-Württemberg,47.997697,7.84117,Knotenbahnhof,Großstadtknoten,8.0,Freiburg,Freiburg (Breisgau) Hbf,nahverkehrsgesellschaft-baden-wurttemberg-mbh,NVBW,RB Südwest,-0.07784,86,0.48503,-0.15116,167
Freilassing,Bayern,47.836916,12.977193,Knotenbahnhof,Regionaler Knoten,9.0,Rosenheim,München Hbf,bayerische-eisenbahngesellschaft-mbh,BEG,RB Süd,0.00704,54,0.61972,0.01852,142
Friedberg (Hess),Hessen,50.332606,8.762056,Knotenbahnhof,Regionaler Knoten,10.0,Gießen,Kassel-Wilhelmshöhe,rhein-main-verkehrsverbund-gmbh,RMV,RB Mitte,0.02649,93,0.89735,0.25806,906
Friedrichshafen Stadt,Baden-Württemberg,47.653224,9.4739,Knotenbahnhof,Regionaler Knoten,11.0,Friedrichshafen,Stuttgart Hbf,nahverkehrsgesellschaft-baden-wurttemberg-mbh,NVBW,RB Südwest,0.0,0,1.0,,60
Fürth (Bay) Hbf,Bayern,49.469707,10.989988,Knotenbahnhof,Regionaler Knoten,8.0,Nürnberg,Nürnberg Hbf,bayerische-eisenbahngesellschaft-mbh,BEG,RB Süd,-0.03333,6,0.9,-0.33333,60
Fulda,Hessen,50.554723,9.683977,Knotenbahnhof,Großstadtknoten,10.0,Kassel,Kassel-Wilhelmshöhe,rhein-main-verkehrsverbund-gmbh,RMV,RB Mitte,0.60577,3147,0.39481,1.00095,5200
Traunstein,Bayern,47.869727,12.638801,Knotenbahnhof,Regionaler Knoten,6.0,Rosenheim,München Hbf,bayerische-eisenbahngesellschaft-mbh,BEG,RB Süd,-0.27465,52,0.6338,-0.75,142
Gelsenkirchen Hbf,Nordrhein-Westfalen,51.504903,7.102455,Knotenbahnhof,Großstadtknoten,6.0,Essen,Essen Hbf,zweckverband-verkehrsverbund-rhein-ruhr-aor,VRR,RB West,0.10494,587,0.63765,0.28961,1620
Treuchtlingen,Bayern,48.961267,10.908159,Knotenbahnhof,Regionaler Knoten,7.0,Nürnberg,Nürnberg Hbf,bayerische-eisenbahngesellschaft-mbh,BEG,RB Süd,0.46199,309,0.09649,0.51133,342
Gießen,Hessen,50.579059,8.661462,Knotenbahnhof,Regionaler Knoten,11.0,Gießen,Kassel-Wilhelmshöhe,rhein-main-verkehrsverbund-gmbh,RMV,RB Mitte,0.31373,94,0.84641,2.04255,612
Göppingen,Baden-Württemberg,48.700027,9.651969,Knotenbahnhof,Regionaler Knoten,7.0,Ulm,Stuttgart Hbf,nahverkehrsgesellschaft-baden-wurttemberg-mbh,NVBW,RB Südwest,-0.18333,50,0.16667,-0.22,60
Göttingen,Niedersachsen,51.536815,9.926072,Knotenbahnhof,Großstadtknoten,8.0,Braunschweig / Göttingen,Hannover Hbf,landesnahverkehrsgesellschaft-niedersachsen-mbh,LNVG,RB Nord,-1.93732,3320,0.40374,-3.2491,5568
Treysa,Hessen,50.910661,9.185673,Zubringerbahnhof,Regionaler Zubringer,4.0,Kassel,Kassel-Wilhelmshöhe,nordhessischer-verkehrsverbund-mbh,NVV,RB Mitte,0.05719,95,0.84477,0.36842,612
Günzburg,Bayern,48.4605626,10.2792621,Knotenbahnhof,Regionaler Knoten,6.0,Augsburg,München Hbf,bayerische-eisenbahngesellschaft-mbh,BEG,RB Süd,-0.18413,431,0.31587,-0.26914,630
Tübingen Hbf,Baden-Württemberg,48.515811,9.055407,Knotenbahnhof,Regionaler Knoten,6.0,Friedrichshafen,Stuttgart Hbf,nahverkehrsgesellschaft-baden-wurttemberg-mbh,NVBW,RB Südwest,-15.66154,39,0.4,-26.10256,65
Hagen Hbf,Nordrhein-Westfalen,51.362747,7.460249,Knotenbahnhof,Großstadtknoten,12.0,Hagen,Düsseldorf Hbf,zweckverband-verkehrsverbund-rhein-ruhr-aor,VRR,RB West,0.23155,3277,0.36183,0.36283,5135
Hamburg-Harburg,Hamburg,53.455908,9.991701,Knotenbahnhof,Großstadtknoten,8.0,Hamburg,Hamburg Hbf,hamburger-verkehrsverbund-gmbh,BWVI,RB Nord,0.23122,2885,0.53483,0.49705,6202
Hamm (Westf) Hbf,Nordrhein-Westfalen,51.678078,7.807821,Knotenbahnhof,Großstadtknoten,14.0,Dortmund,Dortmund Hbf,zweckverband-nahverkehr-westfalen-lippe,NWL,RB West,1.43301,4280,0.15914,1.70421,5090
Hanau Hbf,Hessen,50.120953,8.929,Knotenbahnhof,Regionaler Knoten,11.0,Frankfurt a. M.,Frankfurt (Main) Hbf,rhein-main-verkehrsverbund-gmbh,RMV,RB Mitte,0.31536,839,0.4273,0.55066,1465
Hannover Hbf,Niedersachsen,52.376761,9.741021,Metropolbahnhof,Metropolbahnhof,12.0,Hannover,Hannover Hbf,region-hannover,RH,RB Nord,-0.09634,7650,0.28864,-0.13542,10754
Heide (Holst),Schleswig-Holstein,54.193563,9.101029,Knotenbahnhof,Regionaler Knoten,5.0,Schleswig-Holstein,Kiel Hbf,nahverkehrsverbund-schleswig-holstein-gmbh,NAH.SH,RB Nord,0.46667,466,0.33901,0.70601,705
Heidelberg Hbf,Baden-Württemberg,49.403567,8.675442,Knotenbahnhof,Großstadtknoten,9.0,Mannheim,Mannheim Hbf,nahverkehrsgesellschaft-baden-wurttemberg-mbh,NVBW,RB Südwest,0.09461,1239,0.54913,0.20985,2748
Helmstedt,Niedersachsen,52.222086,11.010553,Zubringerbahnhof,Regionaler Zubringer,4.0,Braunschweig / Göttingen,Hannover Hbf,regionalverband-grossraum-braunschweig,RVB,RB Nord,0.16543,721,0.32993,0.24688,1076
Herford,Nordrhein-Westfalen,52.119609,8.663643,Knotenbahnhof,Regionaler Knoten,7.0,Bielefeld,Dortmund Hbf,zweckverband-nahverkehr-westfalen-lippe,NWL,RB West,0.14627,1028,0.25561,0.1965,1381
Tuttlingen,Baden-Württemberg,47.980579,8.798542,Knotenbahnhof,Regionaler Knoten,5.0,Freiburg,Freiburg (Breisgau) Hbf,nahverkehrsgesellschaft-baden-wurttemberg-mbh,NVBW,RB Südwest,0.32102,195,0.44602,0.57949,352
Uelzen,Niedersachsen,52.969781,10.553053,Knotenbahnhof,Regionaler Knoten,7.0,Braunschweig / Göttingen,Hannover Hbf,landesnahverkehrsgesellschaft-niedersachsen-mbh,LNVG,RB Nord,0.07304,1124,0.48369,0.14146,2177
Hildesheim Hbf,Niedersachsen,52.160626,9.953497,Knotenbahnhof,Großstadtknoten,9.0,Braunschweig / Göttingen,Hannover Hbf,landesnahverkehrsgesellschaft-niedersachsen-mbh,LNVG,RB Nord,0.35962,832,0.53468,0.77284,1788
Ulm Hbf,Baden-Württemberg,48.399437,9.982227,Knotenbahnhof,Großstadtknoten,12.0,Ulm,Stuttgart Hbf,nahverkehrsgesellschaft-baden-wurttemberg-mbh,NVBW,RB Südwest,0.47604,3299,0.18078,0.58109,4027
Unna,Nordrhein-Westfalen,51.538982,7.692858,Knotenbahnhof,Regionaler Knoten,8.0,Dortmund,Dortmund Hbf,zweckverband-nahverkehr-westfalen-lippe,NWL,RB West,0.02778,150,0.47917,0.05333,288
Viersen,Nordrhein-Westfalen,51.254947,6.403896,Knotenbahnhof,Regionaler Knoten,5.0,Düsseldorf,Duisburg Hbf,zweckverband-verkehrsverbund-rhein-ruhr-aor,VRR,RB West,0.0119,86,0.4881,0.02326,168
Homburg (Saar) Hbf,Saarland,49.328082,7.337035,Knotenbahnhof,Regionaler Knoten,7.0,Saarbrücken,Saarbrücken Hbf,zweckverband-personennahverkehr-saarland,ZPS,RB Mitte,0.17749,135,0.41558,0.3037,231
Horb,Baden-Württemberg,48.441471,8.688982,Knotenbahnhof,Regionaler Knoten,6.0,Karlsruhe,Mannheim Hbf,nahverkehrsgesellschaft-baden-wurttemberg-mbh,NVBW,RB Südwest,0.07396,218,0.35503,0.11468,338
Husum,Schleswig-Holstein,54.472271,9.055026,Knotenbahnhof,Regionaler Knoten,4.0,Schleswig-Holstein,Kiel Hbf,nahverkehrsverbund-schleswig-holstein-gmbh,NAH.SH,RB Nord,-0.08121,483,0.41455,-0.13872,825
Immendingen,Baden-Württemberg,47.936007,8.729536,Zubringerbahnhof,Regionaler Zubringer,5.0,Freiburg,Freiburg (Breisgau) Hbf,nahverkehrsgesellschaft-baden-wurttemberg-mbh,NVBW,RB Südwest,-0.0566,7,0.93396,-0.85714,106
Ingolstadt Hbf,Bayern,48.744541,11.437337,Knotenbahnhof,Großstadtknoten,7.0,Rosenheim,München Hbf,bayerische-eisenbahngesellschaft-mbh,BEG,RB Süd,0.18447,2051,0.36304,0.28961,3220
Kaiserslautern Hbf,Rheinland-Pfalz,49.436137,7.768716,Knotenbahnhof,Großstadtknoten,11.0,Kaiserslautern,Saarbrücken Hbf,zweckverband-schienenpersonennahverkehr-rheinland-pfalz-sud,ZPNV Süd,RB Mitte,0.06926,125,0.45887,0.128,231
Karlsruhe Hbf,Baden-Württemberg,48.993515,8.402181,Metropolbahnhof,Metropolbahnhof,16.0,Karlsruhe,Mannheim Hbf,nahverkehrsgesellschaft-baden-wurttemberg-mbh,NVBW,RB Südwest,-1.73204,1157,0.54341,-3.79343,2534
Wanne-Eickel Hbf,Nordrhein-Westfalen,51.531256,7.165783,Knotenbahnhof,Großstadtknoten,8.0,Essen,Essen Hbf,zweckverband-verkehrsverbund-rhein-ruhr-aor,VRR,RB West,0.01212,362,0.56121,0.02762,825
Kaufbeuren,Bayern,47.875432,10.629496,Knotenbahnhof,Regionaler Knoten,4.0,Augsburg,München Hbf,bayerische-eisenbahngesellschaft-mbh,BEG,RB Süd,0.73333,103,0.14167,0.85437,120
Warburg (Westf),Nordrhein-Westfalen,51.492953,9.163845,Zubringerbahnhof,Regionaler Zubringer,4.0,Hagen,Düsseldorf Hbf,zweckverband-nahverkehr-westfalen-lippe,NWL,RB West,-0.33557,262,0.12081,-0.38168,298
Kempten (Allgäu) Hbf,Bayern,47.711745,10.31761,Knotenbahnhof,Regionaler Knoten,5.0,Augsburg,München Hbf,bayerische-eisenbahngesellschaft-mbh,BEG,RB Süd,0.61667,201,0.1625,0.73632,240
Kiel Hbf,Schleswig-Holstein,54.314985,10.131976,Knotenbahnhof,Großstadtknoten,8.0,Schleswig-Holstein,Kiel Hbf,nahverkehrsverbund-schleswig-holstein-gmbh,NAH.SH,RB Nord,-3.17597,145,0.68884,-10.2069,466
Koblenz Hbf,Rheinland-Pfalz,50.350929,7.588345,Knotenbahnhof,Großstadtknoten,11.0,Koblenz,Mainz Hbf,zweckverband-schienenpersonennahverkehr-rheinland-pfalz-nord,ZVRP Nord,RB Mitte,-1.09029,1671,0.39892,-1.81388,2780
Köln Hbf,Nordrhein-Westfalen,50.94303,6.958729,Metropolbahnhof,Metropolbahnhof,11.0,Köln,Köln Hbf,zweckverband-nahverkehr-rheinland-gmbh,NVR,RB West,-3.16031,6701,0.34458,-4.82182,10224
Krefeld Hbf,Nordrhein-Westfalen,51.325717,6.569885,Knotenbahnhof,Großstadtknoten,5.0,Duisburg,Duisburg Hbf,zweckverband-verkehrsverbund-rhein-ruhr-aor,VRR,RB West,-0.15476,96,0.42857,-0.27083,168
Kreuztal,Nordrhein-Westfalen,50.956029,7.991696,Zubringerbahnhof,Regionaler Zubringer,3.0,Hagen,Düsseldorf Hbf,zweckverband-nahverkehr-westfalen-lippe,NWL,RB West,0.2079,409,0.29725,0.29584,582
Weilheim (Oberbay),Bayern,47.845363,11.14286,Knotenbahnhof,Regionaler Knoten,5.0,Rosenheim,München Hbf,bayerische-eisenbahngesellschaft-mbh,BEG,RB Süd,-0.08333,11,0.90833,-0.90909,120
Leer (Ostfriesl),Niedersachsen,53.23165,7.465283,Knotenbahnhof,Regionaler Knoten,3.0,Bremen / Osnabrück,Bremen Hbf,landesnahverkehrsgesellschaft-niedersachsen-mbh,LNVG,RB Nord,0.14837,1477,0.30429,0.21327,2123
Lichtenfels,Bayern,50.146452,11.059472,Knotenbahnhof,Regionaler Knoten,6.0,Nordfranken,Nürnberg Hbf,bayerische-eisenbahngesellschaft-mbh,BEG,RB Süd,0.39232,464,0.22538,0.50647,599
Ludwigsburg,Baden-Württemberg,48.891862,9.18542,Knotenbahnhof,Regionaler Knoten,5.0,Stuttgart,Stuttgart Hbf,nahverkehrsgesellschaft-baden-wurttemberg-mbh,NVBW,RB Südwest,-0.46552,24,0.58621,-1.125,58
Lüneburg,Niedersachsen,53.249656,10.41989,Knotenbahnhof,Regionaler Knoten,6.0,Hamburg,Hamburg Hbf,landesnahverkehrsgesellschaft-niedersachsen-mbh,LNVG,RB Nord,0.07523,1279,0.47987,0.14464,2459
Mainz Hbf,Rheinland-Pfalz,50.001117,8.25872,Knotenbahnhof,Großstadtknoten,14.0,Mainz,Mainz Hbf,zweckverband-schienenpersonennahverkehr-rheinland-pfalz-sud,ZPNV Süd,RB Mitte,-0.1058,1566,0.44586,-0.19093,2826
Mannheim Hbf,Baden-Württemberg,49.479354,8.468921,Metropolbahnhof,Metropolbahnhof,11.0,Mannheim,Mannheim Hbf,nahverkehrsgesellschaft-baden-wurttemberg-mbh,NVBW,RB Südwest,-0.13261,4612,0.25685,-0.17845,6206
Memmingen,Bayern,47.985581,10.186853,Knotenbahnhof,Regionaler Knoten,5.0,Augsburg,München Hbf,bayerische-eisenbahngesellschaft-mbh,BEG,RB Süd,1.125,108,0.1,1.25,120
Wiesbaden Hbf,Hessen,50.070791,8.243731,Knotenbahnhof,Großstadtknoten,10.0,Darmstadt,Frankfurt (Main) Hbf,rhein-main-verkehrsverbund-gmbh,RMV,RB Mitte,-2.48706,273,0.55825,-5.63004,618
Witten Hbf,Nordrhein-Westfalen,51.435544,7.329442,Knotenbahnhof,Regionaler Knoten,4.0,Essen,Essen Hbf,zweckverband-verkehrsverbund-rhein-ruhr-aor,VRR,RB West,-0.47595,448,0.23024,-0.6183,582
Minden (Westf),Nordrhein-Westfalen,52.290138,8.934728,Knotenbahnhof,Regionaler Knoten,5.0,Bielefeld,Dortmund Hbf,zweckverband-nahverkehr-westfalen-lippe,NWL,RB West,0.21359,1536,0.37864,0.34375,2472
Mönchengladbach Hbf,Nordrhein-Westfalen,51.196583,6.446111,Knotenbahnhof,Großstadtknoten,9.0,Düsseldorf,Duisburg Hbf,zweckverband-verkehrsverbund-rhein-ruhr-aor,VRR,RB West,-1.7193,134,0.41228,-2.92537,228
Worms Hbf,Rheinland-Pfalz,49.63494,8.356448,Knotenbahnhof,Regionaler Knoten,8.0,Mainz,Mainz Hbf,zweckverband-schienenpersonennahverkehr-rheinland-pfalz-sud,ZPNV Süd,RB Mitte,-0.08163,60,0.79592,-0.4,294
Mülheim (Ruhr) Hbf,Nordrhein-Westfalen,51.431342,6.88651,Knotenbahnhof,Großstadtknoten,4.0,Duisburg,Duisburg Hbf,zweckverband-verkehrsverbund-rhein-ruhr-aor,VRR,RB West,-0.03046,206,0.47716,-0.05825,394
Würzburg Hbf,Bayern,49.801796,9.93578,Knotenbahnhof,Großstadtknoten,11.0,Nordfranken,Würzburg Hbf,bayerische-eisenbahngesellschaft-mbh,BEG,RB Süd,0.19725,3830,0.22517,0.25457,4943
München Hbf,Bayern,48.140232,11.558335,Metropolbahnhof,Metropolbahnhof,34.0,München,München Hbf,bayerische-eisenbahngesellschaft-mbh,BEG,RB Süd,-4.80074,8122,0.33317,-7.19934,12180
München Ost,Bayern,48.12744,11.604971,Knotenbahnhof,Großstadtknoten,12.0,München,München Hbf,bayerische-eisenbahngesellschaft-mbh,BEG,RB Süd,0.07592,61,0.84031,0.47541,382
Münster (Westf) Hbf,Nordrhein-Westfalen,51.956566,7.635715,Knotenbahnhof,Großstadtknoten,9.0,Münster (Westf),Essen Hbf,zweckverband-nahverkehr-westfalen-lippe,NWL,RB West,-0.44996,3281,0.22745,-0.58244,4247
Wuppertal Hbf,Nordrhein-Westfalen,51.254363,7.149543,Knotenbahnhof,Großstadtknoten,5.0,Düsseldorf,Düsseldorf Hbf,zweckverband-verkehrsverbund-rhein-ruhr-aor,VRR,RB West,-0.01521,3255,0.37344,-0.02427,5195
Neumünster,Schleswig-Holstein,54.075752,9.979816,Knotenbahnhof,Regionaler Knoten,6.0,Schleswig-Holstein,Kiel Hbf,nahverkehrsverbund-schleswig-holstein-gmbh,NAH.SH,RB Nord,-0.29614,158,0.66094,-0.87342,466
Neuss Hbf,Nordrhein-Westfalen,51.204351,6.684527,Knotenbahnhof,Großstadtknoten,8.0,Düsseldorf,Duisburg Hbf,zweckverband-verkehrsverbund-rhein-ruhr-aor,VRR,RB West,-0.23333,43,0.28333,-0.32558,60
Neustadt (Weinstr) Hbf,Rheinland-Pfalz,49.349553,8.140757,Knotenbahnhof,Regionaler Knoten,6.0,Kaiserslautern,Saarbrücken Hbf,zweckverband-schienenpersonennahverkehr-rheinland-pfalz-sud,ZPNV Süd,RB Mitte,0.05628,119,0.48485,0.10924,231
Nienburg (Weser),Niedersachsen,52.645566,9.217753,Knotenbahnhof,Regionaler Knoten,6.0,Hannover,Hannover Hbf,landesnahverkehrsgesellschaft-niedersachsen-mbh,LNVG,RB Nord,-0.26473,858,0.24538,-0.35082,1137
Nürnberg Hbf,Bayern,49.445616,11.082989,Metropolbahnhof,Metropolbahnhof,21.0,Nürnberg,Nürnberg Hbf,bayerische-eisenbahngesellschaft-mbh,BEG,RB Süd,-0.26093,7689,0.17641,-0.31682,9336
Oberhausen Hbf,Nordrhein-Westfalen,51.474878,6.851588,Knotenbahnhof,Großstadtknoten,10.0,Duisburg,Duisburg Hbf,zweckverband-verkehrsverbund-rhein-ruhr-aor,VRR,RB West,-0.1623,828,0.62568,-0.43357,2212
Offenburg,Baden-Württemberg,48.476475,7.946723,Knotenbahnhof,Regionaler Knoten,7.0,Freiburg,Freiburg (Breisgau) Hbf,nahverkehrsgesellschaft-baden-wurttemberg-mbh,NVBW,RB Südwest,-0.13738,77,0.75399,-0.55844,313
Oldenburg (Oldb) Hbf,Niedersachsen,53.144323,8.222713,Knotenbahnhof,Großstadtknoten,7.0,Bremen / Osnabrück,Bremen Hbf,landesnahverkehrsgesellschaft-niedersachsen-mbh,LNVG,RB Nord,-2.05694,1039,0.1668,-2.46872,1247
Osnabrück Hbf,Niedersachsen,52.272851,8.061781,Knotenbahnhof,Großstadtknoten,9.0,Bremen / Osnabrück,Bremen Hbf,landesnahverkehrsgesellschaft-niedersachsen-mbh,LNVG,RB Nord,0.32777,1911,0.24076,0.43171,2517
Paderborn Hbf,Nordrhein-Westfalen,51.712979,8.740505,Knotenbahnhof,Regionaler Knoten,6.0,Bielefeld,Dortmund Hbf,zweckverband-nahverkehr-westfalen-lippe,NWL,RB West,-0.37584,282,0.05369,-0.39716,298
Passau Hbf,Bayern,48.573632,13.450776,Knotenbahnhof,Regionaler Knoten,7.0,Regensburg,Nürnberg Hbf,bayerische-eisenbahngesellschaft-mbh,BEG,RB Süd,-8.72803,108,0.54812,-19.31481,239
Pforzheim Hbf,Baden-Württemberg,48.894152,8.703099,Knotenbahnhof,Großstadtknoten,9.0,Karlsruhe,Mannheim Hbf,nahverkehrsgesellschaft-baden-wurttemberg-mbh,NVBW,RB Südwest,-0.05508,283,0.70021,-0.18375,944
Plattling,Bayern,48.779619,12.86394,Knotenbahnhof,Regionaler Knoten,7.0,Regensburg,Nürnberg Hbf,bayerische-eisenbahngesellschaft-mbh,BEG,RB Süd,0.20084,104,0.56485,0.46154,239
Plochingen,Baden-Württemberg,48.71308,9.41081,Knotenbahnhof,Regionaler Knoten,8.0,Stuttgart,Stuttgart Hbf,nahverkehrsgesellschaft-baden-wurttemberg-mbh,NVBW,RB Südwest,-0.144,91,0.272,-0.1978,125
Recklinghausen Hbf,Nordrhein-Westfalen,51.616359,7.20349,Knotenbahnhof,Großstadtknoten,3.0,Münster (Westf),Essen Hbf,zweckverband-verkehrsverbund-rhein-ruhr-aor,VRR,RB West,0.13145,691,0.49818,0.26194,1377
Regensburg Hbf,Bayern,49.011672,12.099617,Knotenbahnhof,Großstadtknoten,8.0,Regensburg,Nürnberg Hbf,bayerische-eisenbahngesellschaft-mbh,BEG,RB Süd,0.67782,151,0.3682,1.07285,239
Remagen,Rheinland-Pfalz,50.577215,7.229779,Knotenbahnhof,Regionaler Knoten,5.0,Koblenz,Mainz Hbf,zweckverband-schienenpersonennahverkehr-rheinland-pfalz-nord,ZVRP Nord,RB Mitte,-0.00738,520,0.57342,-0.01731,1219
Reutlingen Hbf,Baden-Württemberg,48.496079,9.209116,Knotenbahnhof,Regionaler Knoten,3.0,Friedrichshafen,Stuttgart Hbf,nahverkehrsgesellschaft-baden-wurttemberg-mbh,NVBW,RB Südwest,0.23077,38,0.41538,0.39474,65
Rheine,Nordrhein-Westfalen,52.276299,7.434255,Knotenbahnhof,Regionaler Knoten,6.0,Münster (Westf),Essen Hbf,zweckverband-nahverkehr-westfalen-lippe,NWL,RB West,-0.11228,634,0.39155,-0.18454,1042
Rheydt Hbf,Nordrhein-Westfalen,51.163027,6.439564,Knotenbahnhof,Regionaler Knoten,4.0,Düsseldorf,Duisburg Hbf,zweckverband-verkehrsverbund-rhein-ruhr-aor,VRR,RB West,-0.02193,90,0.60526,-0.05556,228
Rosenheim,Bayern,47.850018,12.119202,Knotenbahnhof,Regionaler Knoten,8.0,Rosenheim,München Hbf,bayerische-eisenbahngesellschaft-mbh,BEG,RB Süd,0.01843,88,0.79724,0.09091,434
Rottweil,Baden-Württemberg,48.165304,8.639295,Knotenbahnhof,Regionaler Knoten,6.0,Freiburg,Freiburg (Breisgau) Hbf,nahverkehrsgesellschaft-baden-wurttemberg-mbh,NVBW,RB Südwest,-0.99017,260,0.36118,-1.55,407
Saarbrücken Hbf,Saarland,49.241065,6.991021,Knotenbahnhof,Großstadtknoten,10.0,Saarbrücken,Saarbrücken Hbf,zweckverband-personennahverkehr-saarland,ZPS,RB Mitte,-1.35417,99,0.65625,-3.93939,288
Schwäbisch Gmünd,Baden-Württemberg,48.801011,9.787795,Knotenbahnhof,Regionaler Knoten,3.0,Ulm,Stuttgart Hbf,nahverkehrsgesellschaft-baden-wurttemberg-mbh,NVBW,RB Südwest,0.17566,793,0.16085,0.20933,945
Andernach,Rheinland-Pfalz,50.434542,7.404839,Knotenbahnhof,Regionaler Knoten,4.0,Koblenz,Mainz Hbf,zweckverband-schienenpersonennahverkehr-rheinland-pfalz-nord,ZVRP Nord,RB Mitte,-0.1588,483,0.56171,-0.36232,1102
Hausach,Baden-Württemberg,48.284924,8.181665,Zubringerbahnhof,Regionaler Zubringer,3.0,Freiburg,Freiburg (Breisgau) Hbf,nahverkehrsgesellschaft-baden-wurttemberg-mbh,NVBW,RB Südwest,-0.01156,28,0.83815,-0.07143,173
Marburg (Lahn),Hessen,50.819272,8.775014,Knotenbahnhof,Regionaler Knoten,6.0,Gießen,Kassel-Wilhelmshöhe,rhein-main-verkehrsverbund-gmbh,RMV,RB Mitte,0.12108,87,0.86996,0.93103,669
Mühlacker,Baden-Württemberg,48.953192,8.846101,Knotenbahnhof,Regionaler Knoten,5.0,Karlsruhe,Mannheim Hbf,nahverkehrsgesellschaft-baden-wurttemberg-mbh,NVBW,RB Südwest,-0.18059,237,0.73251,-0.67511,886
Villingen (Schwarzw),Baden-Württemberg,48.058022,8.465261,Knotenbahnhof,Regionaler Knoten,4.0,Freiburg,Freiburg (Breisgau) Hbf,nahverkehrsgesellschaft-baden-wurttemberg-mbh,NVBW,RB Südwest,0.02312,20,0.88439,0.2,173
Wabern (Bz Kassel),Hessen,51.103134,9.35804,Zubringerbahnhof,Regionaler Zubringer,5.0,Kassel,Kassel-Wilhelmshöhe,nordhessischer-verkehrsverbund-mbh,NVV,RB Mitte,0.07466,61,0.88016,0.62295,509
Wetzlar,Hessen,50.565631,8.503819,Knotenbahnhof,Regionaler Knoten,5.0,Gießen,Kassel-Wilhelmshöhe,rhein-main-verkehrsverbund-gmbh,RMV,RB Mitte,0.19455,569,0.29492,0.27592,807
Ainring,Bayern,47.815033,12.964501,Zubringerbahnhof,ländlicher Zubringer,1.0,Rosenheim,München Hbf,bayerische-eisenbahngesellschaft-mbh,BEG,RB Süd,1.53333,52,0.13333,1.76923,60
Altena (Westf),Nordrhein-Westfalen,51.301981,7.668808,Zubringerbahnhof,ländlicher Zubringer,2.0,Hagen,Düsseldorf Hbf,zweckverband-nahverkehr-westfalen-lippe,NWL,RB West,0.01203,447,0.23196,0.01566,582
Hude,Niedersachsen,53.109429,8.460956,Knotenbahnhof,Regionaler Knoten,4.0,Bremen / Osnabrück,Bremen Hbf,landesnahverkehrsgesellschaft-niedersachsen-mbh,LNVG,RB Nord,0.06691,865,0.1961,0.08324,1076
Lennestadt-Altenhundem,Nordrhein-Westfalen,51.104132,8.071517,Zubringerbahnhof,Regionaler Zubringer,3.0,Hagen,Düsseldorf Hbf,zweckverband-nahverkehr-westfalen-lippe,NWL,RB West,0.20222,584,0.2799,0.28082,811
Lippstadt,Nordrhein-Westfalen,51.670687,8.348785,Knotenbahnhof,Regionaler Knoten,3.0,Dortmund,Dortmund Hbf,zweckverband-nahverkehr-westfalen-lippe,NWL,RB West,-0.18456,276,0.07383,-0.19928,298
Neu-Edingen/Friedrichsfeld,Baden-Württemberg,49.44867,8.580125,Zubringerbahnhof,Regionaler Zubringer,5.0,Mannheim,Mannheim Hbf,nahverkehrsgesellschaft-baden-wurttemberg-mbh,NVBW,RB Südwest,0.0303,7,0.95758,0.71429,165
Augustfehn,Niedersachsen,53.22089,7.759659,Zubringerbahnhof,ländlicher Zubringer,2.0,Bremen / Osnabrück,Bremen Hbf,landesnahverkehrsgesellschaft-niedersachsen-mbh,LNVG,RB Nord,0.579,856,0.20446,0.7278,1076
Montabaur,Rheinland-Pfalz,50.444834,7.825333,Knotenbahnhof,Regionaler Knoten,5.0,Koblenz,Mainz Hbf,zweckverband-schienenpersonennahverkehr-rheinland-pfalz-nord,ZVRP Nord,RB Mitte,0.38704,887,0.63164,1.05073,2408
Bad Nauheim,Hessen,50.367904,8.749334,Knotenbahnhof,Regionaler Knoten,3.0,Gießen,Kassel-Wilhelmshöhe,rhein-main-verkehrsverbund-gmbh,RMV,RB Mitte,-0.28253,523,0.35192,-0.43595,807
Bad Oeynhausen,Nordrhein-Westfalen,52.205398,8.796523,Knotenbahnhof,Regionaler Knoten,3.0,Bielefeld,Dortmund Hbf,zweckverband-nahverkehr-westfalen-lippe,NWL,RB West,0.39744,580,0.25641,0.53448,780
Bad Reichenhall,Bayern,47.731168,12.881825,Zubringerbahnhof,Regionaler Zubringer,2.0,Rosenheim,München Hbf,bayerische-eisenbahngesellschaft-mbh,BEG,RB Süd,-0.58333,46,0.23333,-0.76087,60
Bad Reichenhall-Kirchberg,Bayern,47.718538,12.874001,Zubringerbahnhof,ländlicher Zubringer,1.0,Rosenheim,München Hbf,bayerische-eisenbahngesellschaft-mbh,BEG,RB Süd,0.76667,52,0.13333,0.88462,60
Bad Zwischenahn,Niedersachsen,53.182547,8.003123,Zubringerbahnhof,Regionaler Zubringer,2.0,Bremen / Osnabrück,Bremen Hbf,landesnahverkehrsgesellschaft-niedersachsen-mbh,LNVG,RB Nord,0.52602,879,0.18309,0.64391,1076
Baden-Baden,Baden-Württemberg,48.790327,8.190831,Knotenbahnhof,Regionaler Knoten,5.0,Karlsruhe,Mannheim Hbf,nahverkehrsgesellschaft-baden-wurttemberg-mbh,NVBW,RB Südwest,-0.39167,114,0.68333,-1.23684,360
Norden,Niedersachsen,53.588196,7.218913,Zubringerbahnhof,ländlicher Zubringer,2.0,Bremen / Osnabrück,Bremen Hbf,landesnahverkehrsgesellschaft-niedersachsen-mbh,LNVG,RB Nord,0.202,615,0.4404,0.36098,1099
Bayerisch Gmain,Bayern,47.720375,12.89507,Zubringerbahnhof,ländlicher Zubringer,1.0,Rosenheim,München Hbf,bayerische-eisenbahngesellschaft-mbh,BEG,RB Süd,-0.51667,48,0.2,-0.64583,60
Radolfzell,Baden-Württemberg,47.735873,8.968984,Knotenbahnhof,Regionaler Knoten,6.0,Friedrichshafen,Stuttgart Hbf,nahverkehrsgesellschaft-baden-wurttemberg-mbh,NVBW,RB Südwest,-0.03008,53,0.86717,-0.22642,399
Berchtesgaden Hbf,Bayern,47.626688,12.999058,Zubringerbahnhof,ländlicher Zubringer,3.0,Rosenheim,München Hbf,bayerische-eisenbahngesellschaft-mbh,BEG,RB Süd,0.86667,46,0.23333,1.13043,60
Bad Bevensen,Niedersachsen,53.078247,10.574141,Zubringerbahnhof,Regionaler Zubringer,2.0,Braunschweig / Göttingen,Hannover Hbf,landesnahverkehrsgesellschaft-niedersachsen-mbh,LNVG,RB Nord,-0.01639,16,0.91257,-0.1875,183
Biberach (Riß),Baden-Württemberg,48.101845,9.793127,Knotenbahnhof,Regionaler Knoten,3.0,Ulm,Stuttgart Hbf,nahverkehrsgesellschaft-baden-wurttemberg-mbh,NVBW,RB Südwest,0.0,0,1.0,,60
Bischofswiesen,Bayern,47.65189,12.960141,Zubringerbahnhof,ländlicher Zubringer,2.0,Rosenheim,München Hbf,bayerische-eisenbahngesellschaft-mbh,BEG,RB Süd,-0.1,45,0.25,-0.13333,60
Böblingen,Baden-Württemberg,48.687758,9.004128,Knotenbahnhof,Regionaler Knoten,5.0,Stuttgart,Stuttgart Hbf,nahverkehrsgesellschaft-baden-wurttemberg-mbh,NVBW,RB Südwest,0.15976,155,0.54142,0.34839,338
Bondorf (b Herrenberg),Baden-Württemberg,48.523552,8.827662,Knotenbahnhof,Regionaler Knoten,3.0,Karlsruhe,Mannheim Hbf,nahverkehrsgesellschaft-baden-wurttemberg-mbh,NVBW,RB Südwest,0.08876,161,0.52367,0.18634,338
Bonn-Beuel,Nordrhein-Westfalen,50.738476,7.127657,Knotenbahnhof,Regionaler Knoten,3.0,Köln,Köln Hbf,zweckverband-nahverkehr-rheinland-gmbh,NVR,RB West,-0.00163,132,0.89251,-0.01515,1228
Bredstedt,Schleswig-Holstein,54.621166,8.970336,Zubringerbahnhof,ländlicher Zubringer,2.0,Schleswig-Holstein,Kiel Hbf,nahverkehrsverbund-schleswig-holstein-gmbh,NAH.SH,RB Nord,0.97315,61,0.7953,4.7541,298
Bremerhaven-Lehe,Bremen,53.566324,8.600657,Zubringerbahnhof,Regionaler Zubringer,2.0,Bremen / Osnabrück,Bremen Hbf,senat-fur-umwelt-bau-verkehr-und-europa-bremen,SUBV,RB Nord,-2.50476,51,0.51429,-5.15686,105
Coburg,Bayern,50.2629273,10.9573281,Knotenbahnhof,Regionaler Knoten,5.0,Nordfranken,Nürnberg Hbf,bayerische-eisenbahngesellschaft-mbh,BEG,RB Süd,-0.46528,251,0.12847,-0.53386,288
Diepholz,Niedersachsen,52.604771,8.380334,Zubringerbahnhof,Regionaler Zubringer,3.0,Bremen / Osnabrück,Bremen Hbf,landesnahverkehrsgesellschaft-niedersachsen-mbh,LNVG,RB Nord,0.05333,134,0.40444,0.08955,225
Ellwangen,Baden-Württemberg,48.964121,10.129681,Zubringerbahnhof,Regionaler Zubringer,3.0,Ulm,Stuttgart Hbf,nahverkehrsgesellschaft-baden-wurttemberg-mbh,NVBW,RB Südwest,0.67831,816,0.13651,0.78554,945
Emden Hbf,Niedersachsen,53.369036,7.195176,Knotenbahnhof,Regionaler Knoten,5.0,Bremen / Osnabrück,Bremen Hbf,landesnahverkehrsgesellschaft-niedersachsen-mbh,LNVG,RB Nord,-2.10744,1388,0.36272,-3.30692,2178
Engen,Baden-Württemberg,47.856347,8.772786,Knotenbahnhof,Regionaler Knoten,3.0,Friedrichshafen,Stuttgart Hbf,nahverkehrsgesellschaft-baden-wurttemberg-mbh,NVBW,RB Südwest,0.05682,169,0.51989,0.11834,352
Erkelenz,Nordrhein-Westfalen,51.076564,6.32172,Zubringerbahnhof,Regionaler Zubringer,2.0,Düsseldorf,Duisburg Hbf,zweckverband-nahverkehr-rheinland-gmbh,NVR,RB West,-0.2193,80,0.64912,-0.625,228
Erlangen,Bayern,49.5958303,11.0016382,Knotenbahnhof,Großstadtknoten,4.0,Nürnberg,Nürnberg Hbf,bayerische-eisenbahngesellschaft-mbh,BEG,RB Süd,0.29918,1445,0.25592,0.40208,1942
Esslingen (Neckar),Baden-Württemberg,48.73881,9.30008,Knotenbahnhof,Regionaler Knoten,6.0,Stuttgart,Stuttgart Hbf,nahverkehrsgesellschaft-baden-wurttemberg-mbh,NVBW,RB Südwest,0.0809,85,0.96002,2.02353,2126
Fischen,Bayern,47.456591,10.271717,Zubringerbahnhof,ländlicher Zubringer,2.0,Augsburg,München Hbf,bayerische-eisenbahngesellschaft-mbh,BEG,RB Süd,-0.02917,223,0.07083,-0.03139,240
Frankfurt (Main) West,Hessen,50.118864,8.639335,Knotenbahnhof,Großstadtknoten,5.0,Frankfurt a. M.,Frankfurt (Main) Hbf,rhein-main-verkehrsverbund-gmbh,RMV,RB Mitte,0.20159,545,0.37927,0.32477,878
Gäufelden,Baden-Württemberg,48.559661,8.850308,Zubringerbahnhof,Regionaler Zubringer,2.0,Karlsruhe,Mannheim Hbf,nahverkehrsgesellschaft-baden-wurttemberg-mbh,NVBW,RB Südwest,0.28402,135,0.60059,0.71111,338
Garmisch-Partenkirchen,Bayern,47.491452,11.097013,Zubringerbahnhof,Regionaler Zubringer,5.0,Rosenheim,München Hbf,bayerische-eisenbahngesellschaft-mbh,BEG,RB Süd,-0.25,6,0.95,-5.0,120
Geilenkirchen,Nordrhein-Westfalen,50.961039,6.124518,Knotenbahnhof,Regionaler Knoten,3.0,Düsseldorf,Duisburg Hbf,zweckverband-nahverkehr-rheinland-gmbh,NVR,RB West,-0.19737,108,0.52632,-0.41667,228
Lennestadt-Grevenbrück,Nordrhein-Westfalen,51.141781,8.017977,Zubringerbahnhof,ländlicher Zubringer,2.0,Hagen,Düsseldorf Hbf,zweckverband-nahverkehr-westfalen-lippe,NWL,RB West,0.10997,430,0.26117,0.14884,582
Gütersloh Hbf,Nordrhein-Westfalen,51.906941,8.385071,Knotenbahnhof,Regionaler Knoten,4.0,Bielefeld,Dortmund Hbf,zweckverband-nahverkehr-westfalen-lippe,NWL,RB West,-0.09836,949,0.25917,-0.13277,1281
Hamburg Dammtor,Hamburg,53.560751,9.989566,Knotenbahnhof,Großstadtknoten,4.0,Hamburg,Hamburg Hbf,hamburger-verkehrsverbund-gmbh,BWVI,RB Nord,0.53827,2835,0.40876,0.91041,4795
Hamburg Hbf,Hamburg,53.552736,10.006909,Metropolbahnhof,Metropolbahnhof,12.0,Hamburg,Hamburg Hbf,hamburger-verkehrsverbund-gmbh,BWVI,RB Nord,-0.66538,7377,0.27184,-0.91379,10131
Hamburg-Altona,Hamburg,53.552695,9.935175,Knotenbahnhof,Großstadtknoten,12.0,Hamburg,Hamburg Hbf,hamburger-verkehrsverbund-gmbh,BWVI,RB Nord,-4.38448,2819,0.45453,-8.03796,5168
Hamburg-Bergedorf,Hamburg,53.489832,10.206171,Knotenbahnhof,Großstadtknoten,5.0,Hamburg,Hamburg Hbf,hamburger-verkehrsverbund-gmbh,BWVI,RB Nord,0.02105,44,0.53684,0.04545,95
Hammerau,Bayern,47.795883,12.946134,Zubringerbahnhof,ländlicher Zubringer,2.0,Rosenheim,München Hbf,bayerische-eisenbahngesellschaft-mbh,BEG,RB Süd,-0.1,52,0.13333,-0.11538,60
Heppenheim (Bergstr),Hessen,49.641553,8.633379,Knotenbahnhof,Regionaler Knoten,2.0,Darmstadt,Frankfurt (Main) Hbf,verkehrsverbund-rhein-neckar-gmbh,VRN,RB Mitte,-0.40816,26,0.46939,-0.76923,49
Herrenberg,Baden-Württemberg,48.593991,8.862662,Knotenbahnhof,Regionaler Knoten,6.0,Stuttgart,Stuttgart Hbf,nahverkehrsgesellschaft-baden-wurttemberg-mbh,NVBW,RB Südwest,0.38166,167,0.50592,0.77246,338
Herzogenrath,Nordrhein-Westfalen,50.870916,6.094486,Knotenbahnhof,Regionaler Knoten,4.0,Düsseldorf,Duisburg Hbf,zweckverband-nahverkehr-rheinland-gmbh,NVR,RB West,0.05357,95,0.43452,0.09474,168
Hünfeld,Hessen,50.673271,9.762453,Zubringerbahnhof,Regionaler Zubringer,3.0,Kassel,Kassel-Wilhelmshöhe,rhein-main-verkehrsverbund-gmbh,RMV,RB Mitte,0.0,0,1.0,,49
Siegen-Weidenau,Nordrhein-Westfalen,50.895966,8.029842,Zubringerbahnhof,Regionaler Zubringer,2.0,Hagen,Düsseldorf Hbf,zweckverband-nahverkehr-westfalen-lippe,NWL,RB West,0.13084,451,0.29751,0.18625,642
Immenstadt,Bayern,47.559203,10.213999,Knotenbahnhof,Regionaler Knoten,3.0,Augsburg,München Hbf,bayerische-eisenbahngesellschaft-mbh,BEG,RB Süd,0.34167,220,0.08333,0.37273,240
Itzehoe,Schleswig-Holstein,53.923873,9.510287,Knotenbahnhof,Regionaler Knoten,4.0,Schleswig-Holstein,Kiel Hbf,nahverkehrsverbund-schleswig-holstein-gmbh,NAH.SH,RB Nord,0.17021,450,0.3617,0.26667,705
Karlsruhe-Durlach,Baden-Württemberg,49.002328,8.462822,Knotenbahnhof,Großstadtknoten,8.0,Karlsruhe,Mannheim Hbf,nahverkehrsgesellschaft-baden-wurttemberg-mbh,NVBW,RB Südwest,-0.48225,95,0.71893,-1.71579,338
Kassel-Wilhelmshöhe,Hessen,51.313114,9.446898,Knotenbahnhof,Großstadtknoten,8.0,Kassel,Kassel-Wilhelmshöhe,nordhessischer-verkehrsverbund-mbh,NVV,RB Mitte,0.49202,3152,0.47572,0.93845,6012
Keitum,Schleswig-Holstein,54.888814,8.368969,Zubringerbahnhof,Regionaler Zubringer,2.0,Schleswig-Holstein,Kiel Hbf,nahverkehrsverbund-schleswig-holstein-gmbh,NAH.SH,RB Nord,0.65,33,0.45,1.18182,60
Klanxbüll,Schleswig-Holstein,54.861997,8.676454,Zubringerbahnhof,Regionaler Zubringer,2.0,Schleswig-Holstein,Kiel Hbf,nahverkehrsverbund-schleswig-holstein-gmbh,NAH.SH,RB Nord,1.15,40,0.33333,1.725,60
Köln/Bonn Flughafen,Nordrhein-Westfalen,50.878901,7.119302,Knotenbahnhof,Großstadtknoten,4.0,Köln,Köln Hbf,zweckverband-nahverkehr-rheinland-gmbh,NVR,RB West,0.13317,300,0.24623,0.17667,398
Köln Süd,Nordrhein-Westfalen,50.9273,6.938059,Knotenbahnhof,Regionaler Knoten,4.0,Köln,Köln Hbf,zweckverband-nahverkehr-rheinland-gmbh,NVR,RB West,-0.0678,3,0.94915,-1.33333,59
Köln Messe/Deutz,Nordrhein-Westfalen,50.940874,6.975001,Knotenbahnhof,Großstadtknoten,10.0,Köln,Köln Hbf,zweckverband-nahverkehr-rheinland-gmbh,NVR,RB West,0.11182,3123,0.60135,0.2805,7834
Konstanz,Baden-Württemberg,47.658754,9.177312,Knotenbahnhof,Regionaler Knoten,3.0,Friedrichshafen,Stuttgart Hbf,nahverkehrsgesellschaft-baden-wurttemberg-mbh,NVBW,RB Südwest,-0.2093,39,0.89922,-2.07692,387
Kronach,Bayern,50.239612,11.320115,Zubringerbahnhof,Regionaler Zubringer,5.0,Nordfranken,Nürnberg Hbf,bayerische-eisenbahngesellschaft-mbh,BEG,RB Süd,0.01669,405,0.32387,0.02469,599
Hannover-Messe / Laatzen,Niedersachsen,52.316899,9.792863,Zubringerbahnhof,Regionaler Zubringer,6.0,Hannover,Hannover Hbf,region-hannover,RH,RB Nord,0.1165,40,0.93528,1.8,618
Langenhorn (Schlesw),Schleswig-Holstein,54.685934,8.946413,Zubringerbahnhof,ländlicher Zubringer,2.0,Schleswig-Holstein,Kiel Hbf,nahverkehrsverbund-schleswig-holstein-gmbh,NAH.SH,RB Nord,-0.31381,93,0.61088,-0.80645,239
Limburg Süd,Hessen,50.382498,8.096112,Zubringerbahnhof,Regionaler Zubringer,2.0,Gießen,Kassel-Wilhelmshöhe,rhein-main-verkehrsverbund-gmbh,RMV,RB Mitte,0.24038,769,0.70423,0.81274,2600
Lingen (Ems),Niedersachsen,52.519867,7.321731,Zubringerbahnhof,Regionaler Zubringer,2.0,Bremen / Osnabrück,Bremen Hbf,landesnahverkehrsgesellschaft-niedersachsen-mbh,LNVG,RB Nord,-0.62464,664,0.36581,-0.98494,1047
Ludwigsstadt,Bayern,50.486583,11.382989,Zubringerbahnhof,ländlicher Zubringer,3.0,Nordfranken,Nürnberg Hbf,bayerische-eisenbahngesellschaft-mbh,BEG,RB Süd,-0.04007,379,0.36728,-0.06332,599
Marienhafe,Niedersachsen,53.5192358,7.27436006,Zubringerbahnhof,ländlicher Zubringer,2.0,Bremen / Osnabrück,Bremen Hbf,landesnahverkehrsgesellschaft-niedersachsen-mbh,LNVG,RB Nord,0.12857,326,0.33469,0.19325,490
Meppen,Niedersachsen,52.696021,7.298015,Zubringerbahnhof,Regionaler Zubringer,3.0,Bremen / Osnabrück,Bremen Hbf,landesnahverkehrsgesellschaft-niedersachsen-mbh,LNVG,RB Nord,0.07545,631,0.39733,0.1252,1047
Müllheim (Baden),Baden-Württemberg,47.809743,7.599332,Knotenbahnhof,Regionaler Knoten,4.0,Freiburg,Freiburg (Breisgau) Hbf,nahverkehrsgesellschaft-baden-wurttemberg-mbh,NVBW,RB Südwest,-1.06061,31,0.06061,-1.12903,33
München-Pasing,Bayern,48.149852,11.461872,Knotenbahnhof,Großstadtknoten,9.0,München,München Hbf,bayerische-eisenbahngesellschaft-mbh,BEG,RB Süd,0.29599,3228,0.29226,0.41822,4561
Murnau,Bayern,47.682266,11.192628,Zubringerbahnhof,Regionaler Zubringer,4.0,Rosenheim,München Hbf,bayerische-eisenbahngesellschaft-mbh,BEG,RB Süd,-0.01667,12,0.9,-0.16667,120
Niebüll,Schleswig-Holstein,54.789605,8.834572,Knotenbahnhof,Regionaler Knoten,6.0,Schleswig-Holstein,Kiel Hbf,nahverkehrsverbund-schleswig-holstein-gmbh,NAH.SH,RB Nord,0.43121,855,0.57378,1.0117,2006
Norddeich,Niedersachsen,53.621579,7.160824,Zubringerbahnhof,ländlicher Zubringer,2.0,Bremen / Osnabrück,Bremen Hbf,landesnahverkehrsgesellschaft-niedersachsen-mbh,LNVG,RB Nord,0.09806,529,0.42996,0.17202,928
Nürtingen,Baden-Württemberg,48.627997,9.342648,Knotenbahnhof,Regionaler Knoten,3.0,Friedrichshafen,Stuttgart Hbf,nahverkehrsgesellschaft-baden-wurttemberg-mbh,NVBW,RB Südwest,0.13846,39,0.4,0.23077,65
Oberndorf (Neckar),Baden-Württemberg,48.295669,8.575514,Zubringerbahnhof,ländlicher Zubringer,3.0,Freiburg,Freiburg (Breisgau) Hbf,nahverkehrsgesellschaft-baden-wurttemberg-mbh,NVBW,RB Südwest,-0.57386,175,0.50284,-1.15429,352
Oberstdorf,Bayern,47.411032,10.278097,Zubringerbahnhof,Regionaler Zubringer,5.0,Augsburg,München Hbf,bayerische-eisenbahngesellschaft-mbh,BEG,RB Süd,-10.12083,215,0.10417,-11.29767,240
Westerstede-Ocholt,Niedersachsen,53.202166,7.886468,Zubringerbahnhof,ländlicher Zubringer,3.0,Bremen / Osnabrück,Bremen Hbf,landesnahverkehrsgesellschaft-niedersachsen-mbh,LNVG,RB Nord,0.33364,835,0.22398,0.42994,1076
Osterholz-Scharmbeck,Niedersachsen,53.222776,8.797434,Knotenbahnhof,Regionaler Knoten,2.0,Bremen / Osnabrück,Bremen Hbf,landesnahverkehrsgesellschaft-niedersachsen-mbh,LNVG,RB Nord,0.13333,74,0.29524,0.18919,105
Papenburg (Ems),Niedersachsen,53.089706,7.386708,Zubringerbahnhof,Regionaler Zubringer,2.0,Bremen / Osnabrück,Bremen Hbf,landesnahverkehrsgesellschaft-niedersachsen-mbh,LNVG,RB Nord,0.26648,544,0.48042,0.51287,1047
Peine,Niedersachsen,52.318942,10.232145,Zubringerbahnhof,Regionaler Zubringer,2.0,Braunschweig / Göttingen,Hannover Hbf,regionalverband-grossraum-braunschweig,RVB,RB Nord,-0.38506,93,0.46552,-0.72043,174
Piding,Bayern,47.759543,12.91153,Zubringerbahnhof,Regionaler Zubringer,2.0,Rosenheim,München Hbf,bayerische-eisenbahngesellschaft-mbh,BEG,RB Süd,-0.36667,48,0.2,-0.45833,60
Plettenberg,Nordrhein-Westfalen,51.23193,7.868913,Zubringerbahnhof,ländlicher Zubringer,3.0,Hagen,Düsseldorf Hbf,zweckverband-nahverkehr-westfalen-lippe,NWL,RB West,0.08763,457,0.21478,0.1116,582
Prien am Chiemsee,Bayern,47.855513,12.346615,Knotenbahnhof,Regionaler Knoten,4.0,Rosenheim,München Hbf,bayerische-eisenbahngesellschaft-mbh,BEG,RB Süd,-0.11972,47,0.66901,-0.3617,142
Ravensburg,Baden-Württemberg,47.784481,9.6061,Knotenbahnhof,Regionaler Knoten,3.0,Friedrichshafen,Stuttgart Hbf,nahverkehrsgesellschaft-baden-wurttemberg-mbh,NVBW,RB Südwest,0.0,0,1.0,,60
Schorndorf,Baden-Württemberg,48.80715,9.52631,Knotenbahnhof,Regionaler Knoten,6.0,Stuttgart,Stuttgart Hbf,nahverkehrsgesellschaft-baden-wurttemberg-mbh,NVBW,RB Südwest,-0.0084,173,0.27311,-0.01156,238
Siegburg/Bonn,Nordrhein-Westfalen,50.793915,7.203026,Knotenbahnhof,Regionaler Knoten,4.0,Köln,Köln Hbf,zweckverband-nahverkehr-rheinland-gmbh,NVR,RB West,0.63645,1947,0.37416,1.01695,3111
Sonthofen,Bayern,47.513241,10.272344,Zubringerbahnhof,Regionaler Zubringer,3.0,Augsburg,München Hbf,bayerische-eisenbahngesellschaft-mbh,BEG,RB Süd,0.49167,226,0.05833,0.52212,240
Spaichingen,Baden-Württemberg,48.068987,8.740147,Zubringerbahnhof,ländlicher Zubringer,3.0,Freiburg,Freiburg (Breisgau) Hbf,nahverkehrsgesellschaft-baden-wurttemberg-mbh,NVBW,RB Südwest,0.35354,170,0.42761,0.61765,297
Sulz (Neckar),Baden-Württemberg,48.366485,8.636748,Zubringerbahnhof,ländlicher Zubringer,2.0,Freiburg,Freiburg (Breisgau) Hbf,nahverkehrsgesellschaft-baden-wurttemberg-mbh,NVBW,RB Südwest,-0.11932,170,0.51705,-0.24706,352
Triberg,Baden-Württemberg,48.140004,8.236806,Zubringerbahnhof,ländlicher Zubringer,3.0,Freiburg,Freiburg (Breisgau) Hbf,nahverkehrsgesellschaft-baden-wurttemberg-mbh,NVBW,RB Südwest,-0.16185,30,0.82659,-0.93333,173
Übersee,Bayern,47.822047,12.487338,Zubringerbahnhof,ländlicher Zubringer,3.0,Rosenheim,München Hbf,bayerische-eisenbahngesellschaft-mbh,BEG,RB Süd,-0.73333,54,0.1,-0.81481,60
Vaihingen (Enz),Baden-Württemberg,48.948118,8.957632,Knotenbahnhof,Regionaler Knoten,4.0,Mannheim,Mannheim Hbf,nahverkehrsgesellschaft-baden-wurttemberg-mbh,NVBW,RB Südwest,0.41935,1064,0.3524,0.64756,1643
Verden (Aller),Niedersachsen,52.920818,9.237855,Knotenbahnhof,Regionaler Knoten,5.0,Bremen / Osnabrück,Bremen Hbf,landesnahverkehrsgesellschaft-niedersachsen-mbh,LNVG,RB Nord,-0.26473,840,0.26121,-0.35833,1137
Werdohl,Nordrhein-Westfalen,51.259485,7.757544,Zubringerbahnhof,Regionaler Zubringer,2.0,Hagen,Düsseldorf Hbf,zweckverband-nahverkehr-westfalen-lippe,NWL,RB West,-0.01718,450,0.2268,-0.02222,582
Westerland (Sylt),Schleswig-Holstein,54.906839,8.310925,Zubringerbahnhof,Regionaler Zubringer,7.0,Schleswig-Holstein,Kiel Hbf,nahverkehrsverbund-schleswig-holstein-gmbh,NAH.SH,RB Nord,-3.61709,242,0.58632,-8.7438,585
Wiesloch-Walldorf,Baden-Württemberg,49.291353,8.664146,Knotenbahnhof,Regionaler Knoten,3.0,Mannheim,Mannheim Hbf,nahverkehrsgesellschaft-baden-wurttemberg-mbh,NVBW,RB Südwest,-0.20252,282,0.67735,-0.62766,874
Wolfsburg Hbf,Niedersachsen,52.429498,10.787784,Knotenbahnhof,Großstadtknoten,6.0,Braunschweig / Göttingen,Hannover Hbf,regionalverband-grossraum-braunschweig,RVB,RB Nord,0.47949,3124,0.44294,0.86076,5608
Neu-Ulm,Bayern,48.393039,10.004823,Knotenbahnhof,Regionaler Knoten,4.0,Augsburg,München Hbf,bayerische-eisenbahngesellschaft-mbh,BEG,RB Süd,0.03571,24,0.78571,0.16667,112
Norddeich Mole,Niedersachsen,53.624315,7.158806,Zubringerbahnhof,ländlicher Zubringer,1.0,Bremen / Osnabrück,Bremen Hbf,landesnahverkehrsgesellschaft-niedersachsen-mbh,LNVG,RB Nord,-1.50413,456,0.52893,-3.19298,968
Angermünde,Brandenburg,53.015221,13.996361,Knotenbahnhof,Regionaler Knoten,5.0,Potsdam,Potsdam,verkehrsverbund-berlin-brandenburg-gmbh-fur-brandenburg,VBB,RB Ost,-0.08121,427,0.48242,-0.15691,825
Bad Kleinen,Mecklenburg-Vorpommern,53.766974,11.466925,Knotenbahnhof,Regionaler Knoten,4.0,Schwerin,Rostock Hbf,verkehrsgesellschaft-mecklenburg-vorpommern-mbh,VMV,RB Ost,-0.03857,170,0.53168,-0.08235,363
Bergen auf Rügen,Mecklenburg-Vorpommern,54.4205,13.417821,Zubringerbahnhof,Regionaler Zubringer,4.0,Rostock,Rostock Hbf,verkehrsgesellschaft-mecklenburg-vorpommern-mbh,VMV,RB Ost,0.07002,299,0.7316,0.26087,1114
Berlin-Lichtenberg,Berlin,52.5101355,13.4966934,Knotenbahnhof,Großstadtknoten,8.0,Berlin Regional- und S-Bahnhöfe,Berlin Ostbahnhof,verkehrsverbund-berlin-brandenburg-gmbh-fur-berlin,VBB Berlin,RB Ost,0.14366,82,0.76901,0.62195,355
Bitterfeld,Sachsen-Anhalt,51.622861,12.31685,Knotenbahnhof,Regionaler Knoten,6.0,Halle (Saale),Leipzig Hbf,nahverkehrsservice-sachsen-anhalt-gmbh,NASA,RB Südost,0.40051,977,0.17622,0.48618,1186
Brandenburg Hbf,Brandenburg,52.400554,12.566138,Knotenbahnhof,Regionaler Knoten,5.0,Potsdam,Potsdam,verkehrsverbund-berlin-brandenburg-gmbh-fur-brandenburg,VBB,RB Ost,-0.06173,164,0.3251,-0.09146,243
Bützow,Mecklenburg-Vorpommern,53.837114,11.998194,Zubringerbahnhof,Regionaler Zubringer,3.0,Rostock,Rostock Hbf,verkehrsgesellschaft-mecklenburg-vorpommern-mbh,VMV,RB Ost,0.08478,364,0.64933,0.24176,1038
Cottbus Hbf,Brandenburg,51.750957,14.324162,Knotenbahnhof,Regionaler Knoten,10.0,Cottbus,Potsdam,verkehrsverbund-berlin-brandenburg-gmbh-fur-brandenburg,VBB,RB Ost,-2.85714,50,0.55357,-6.4,112
Dessau Hbf,Sachsen-Anhalt,51.839865,12.234945,Knotenbahnhof,Regionaler Knoten,7.0,Magdeburg,Magdeburg Hbf,nahverkehrsservice-sachsen-anhalt-gmbh,NASA,RB Südost,1.63158,10,0.47368,3.1,19
Doberlug-Kirchhain,Brandenburg,51.620576,13.564241,Zubringerbahnhof,ländlicher Zubringer,4.0,Cottbus,Potsdam,verkehrsverbund-berlin-brandenburg-gmbh-fur-brandenburg,VBB,RB Ost,-0.00141,413,0.41913,-0.00242,711
Döbeln Hbf,Sachsen,51.126568,13.094988,Zubringerbahnhof,ländlicher Zubringer,4.0,Leipzig,Leipzig Hbf,zweckverband-verkehrsverbund-mittelsachsen,VMS,RB Südost,-0.05085,2,0.9661,-1.5,59
Dresden Hbf,Sachsen,51.040563,13.732035,Metropolbahnhof,Metropolbahnhof,15.0,Dresden,Dresden,verkehrsbund-oberelbe-gmbh,VVO,RB Südost,-2.9066,1640,0.36704,-4.59207,2591
Dresden-Neustadt,Sachsen,51.065899,13.740701,Knotenbahnhof,Großstadtknoten,8.0,Dresden,Dresden,verkehrsbund-oberelbe-gmbh,VVO,RB Südost,0.20774,1759,0.30529,0.29903,2532
Eberswalde Hbf,Brandenburg,52.834021,13.797062,Knotenbahnhof,Regionaler Knoten,5.0,Potsdam,Potsdam,verkehrsverbund-berlin-brandenburg-gmbh-fur-brandenburg,VBB,RB Ost,-0.06527,424,0.44648,-0.11792,766
Eisenach,Thüringen,50.976922,10.331986,Knotenbahnhof,Regionaler Knoten,6.0,Erfurt,Erfurt Hbf,thuringer-landesamt-fur-bau-und-verkehr,TLBV,RB Südost,0.23254,1077,0.53275,0.49768,2305
Elsterwerda,Brandenburg,51.459677,13.516428,Zubringerbahnhof,Regionaler Zubringer,3.0,Cottbus,Potsdam,verkehrsverbund-berlin-brandenburg-gmbh-fur-brandenburg,VBB,RB Ost,-0.0699,608,0.40971,-0.11842,1030
Erfurt Hbf,Thüringen,50.972551,11.038499,Knotenbahnhof,Großstadtknoten,10.0,Erfurt,Erfurt Hbf,thuringer-landesamt-fur-bau-und-verkehr,TLBV,RB Südost,0.02522,4452,0.3155,0.03684,6504
Frankfurt (Oder),Brandenburg,52.336416,14.546496,Knotenbahnhof,Regionaler Knoten,6.0,Cottbus,Potsdam,verkehrsverbund-berlin-brandenburg-gmbh-fur-brandenburg,VBB,RB Ost,1.51724,92,0.2069,1.91304,116
Freiberg (Sachs),Sachsen,50.908725,13.344141,Knotenbahnhof,Regionaler Knoten,4.0,Chemnitz,Dresden,zweckverband-verkehrsverbund-mittelsachsen,VMS,RB Südost,-0.68776,134,0.4346,-1.21642,237
Gera Hbf,Thüringen,50.883421,12.077092,Knotenbahnhof,Regionaler Knoten,6.0,Chemnitz,Erfurt Hbf,thuringer-landesamt-fur-bau-und-verkehr,TLBV,RB Südost,-3.05172,159,0.60837,-7.79245,406
Jena-Göschwitz,Thüringen,50.883942,11.593537,Knotenbahnhof,Regionaler Knoten,6.0,Chemnitz,Erfurt Hbf,thuringer-landesamt-fur-bau-und-verkehr,TLBV,RB Südost,-0.0955,599,0.44995,-0.17362,1089
Gotha,Thüringen,50.93907,10.712568,Knotenbahnhof,Regionaler Knoten,6.0,Erfurt,Erfurt Hbf,thuringer-landesamt-fur-bau-und-verkehr,TLBV,RB Südost,0.35998,998,0.38166,0.58216,1614
Greifswald,Mecklenburg-Vorpommern,54.092923,13.370262,Zubringerbahnhof,Regionaler Zubringer,3.0,Rostock,Rostock Hbf,verkehrsgesellschaft-mecklenburg-vorpommern-mbh,VMV,RB Ost,-0.22933,358,0.64764,-0.65084,1016
Halle (Saale) Hbf,Sachsen-Anhalt,51.477509,11.987085,Knotenbahnhof,Großstadtknoten,13.0,Halle (Saale),Leipzig Hbf,nahverkehrsservice-sachsen-anhalt-gmbh,NASA,RB Südost,-0.05438,3568,0.36794,-0.08604,5645
Chemnitz Hbf,Sachsen,50.839696,12.930877,Knotenbahnhof,Großstadtknoten,13.0,Chemnitz,Dresden,zweckverband-verkehrsverbund-mittelsachsen,VMS,RB Südost,-2.81419,108,0.63514,-7.71296,296
Königs Wusterhausen,Brandenburg,52.296635,13.631472,Knotenbahnhof,Regionaler Knoten,3.0,Cottbus,Potsdam,verkehrsverbund-berlin-brandenburg-gmbh-fur-brandenburg,VBB,RB Ost,-0.36607,65,0.41964,-0.63077,112
Köthen,Sachsen-Anhalt,51.751929,11.989358,Zubringerbahnhof,Regionaler Zubringer,5.0,Magdeburg,Magdeburg Hbf,nahverkehrsservice-sachsen-anhalt-gmbh,NASA,RB Südost,-0.31153,1234,0.31596,-0.45543,1804
Leipzig Hbf,Sachsen,51.3454712,12.3820639,Metropolbahnhof,Metropolbahnhof,25.0,Leipzig,Leipzig Hbf,zweckverband-fur-den-nahverkehrsraum-leipzig,ZVNL,RB Südost,-1.08465,3337,0.48455,-2.10429,6474
Ludwigslust,Mecklenburg-Vorpommern,53.334671,11.494491,Knotenbahnhof,Regionaler Knoten,5.0,Schwerin,Rostock Hbf,verkehrsgesellschaft-mecklenburg-vorpommern-mbh,VMV,RB Ost,0.16257,1047,0.58485,0.3916,2522
Lübben (Spreewald),Brandenburg,51.939737,13.877182,Knotenbahnhof,Regionaler Knoten,3.0,Cottbus,Potsdam,verkehrsverbund-berlin-brandenburg-gmbh-fur-brandenburg,VBB,RB Ost,-0.36607,58,0.48214,-0.7069,112
Lübbenau (Spreewald),Brandenburg,51.862169,13.9609,Zubringerbahnhof,Regionaler Zubringer,3.0,Cottbus,Potsdam,verkehrsverbund-berlin-brandenburg-gmbh-fur-brandenburg,VBB,RB Ost,-0.29464,59,0.47321,-0.55932,112
Lutherstadt Wittenberg Hauptbahnhof,Sachsen-Anhalt,51.867811,12.662285,Knotenbahnhof,Regionaler Knoten,6.0,Halle (Saale),Leipzig Hbf,nahverkehrsservice-sachsen-anhalt-gmbh,NASA,RB Südost,0.20029,1090,0.46621,0.37523,2042
Magdeburg Hbf,Sachsen-Anhalt,52.130349,11.626891,Knotenbahnhof,Großstadtknoten,9.0,Magdeburg,Magdeburg Hbf,nahverkehrsservice-sachsen-anhalt-gmbh,NASA,RB Südost,-0.26843,1693,0.22975,-0.34849,2198
Naumburg (Saale) Hbf,Sachsen-Anhalt,51.163071,11.796984,Knotenbahnhof,Regionaler Knoten,5.0,Halle (Saale),Leipzig Hbf,nahverkehrsservice-sachsen-anhalt-gmbh,NASA,RB Südost,0.08105,350,0.56359,0.18571,802
Neustrelitz Hbf,Mecklenburg-Vorpommern,53.359255,13.074603,Knotenbahnhof,Regionaler Knoten,4.0,Rostock,Rostock Hbf,verkehrsgesellschaft-mecklenburg-vorpommern-mbh,VMV,RB Ost,0.07881,360,0.69492,0.25833,1180
Berlin Ostbahnhof,Berlin,52.5104881,13.4346807,Knotenbahnhof,Großstadtknoten,9.0,Berlin Fernbahnhöfe,Berlin Ostbahnhof,verkehrsverbund-berlin-brandenburg-gmbh-fur-berlin,VBB Berlin,RB Ost,-4.13253,3616,0.44853,-7.49364,6557
Pasewalk,Mecklenburg-Vorpommern,53.515353,13.988875,Zubringerbahnhof,Regionaler Zubringer,4.0,Rostock,Rostock Hbf,verkehrsgesellschaft-mecklenburg-vorpommern-mbh,VMV,RB Ost,0.15879,414,0.49818,0.31643,825
Prenzlau,Brandenburg,53.321608,13.866532,Zubringerbahnhof,ländlicher Zubringer,3.0,Potsdam,Potsdam,verkehrsverbund-berlin-brandenburg-gmbh-fur-brandenburg,VBB,RB Ost,-0.01576,431,0.47758,-0.03016,825
Riesa,Sachsen,51.309654,13.287734,Knotenbahnhof,Regionaler Knoten,9.0,Leipzig,Leipzig Hbf,verkehrsbund-oberelbe-gmbh,VVO,RB Südost,0.46471,1287,0.27329,0.63947,1771
Rostock Hbf,Mecklenburg-Vorpommern,54.078246,12.131079,Knotenbahnhof,Großstadtknoten,11.0,Rostock,Rostock Hbf,verkehrsgesellschaft-mecklenburg-vorpommern-mbh,VMV,RB Ost,-0.40796,917,0.49309,-0.8048,1809
Rudolstadt (Thür),Thüringen,50.7179313,11.3388991,Zubringerbahnhof,Regionaler Zubringer,3.0,Chemnitz,Erfurt Hbf,thuringer-landesamt-fur-bau-und-verkehr,TLBV,RB Südost,0.27713,435,0.27379,0.38161,599
Saalfeld (Saale),Thüringen,50.6502734,11.3745832,Knotenbahnhof,Regionaler Knoten,7.0,Chemnitz,Erfurt Hbf,thuringer-landesamt-fur-bau-und-verkehr,TLBV,RB Südost,-0.0985,407,0.32053,-0.14496,599
Salzwedel,Sachsen-Anhalt,52.858113,11.162035,Zubringerbahnhof,ländlicher Zubringer,4.0,Magdeburg,Magdeburg Hbf,nahverkehrsservice-sachsen-anhalt-gmbh,NASA,RB Südost,0.0,0,1.0,,60
Schwerin Hbf,Mecklenburg-Vorpommern,53.634739,11.407455,Knotenbahnhof,Großstadtknoten,4.0,Schwerin,Rostock Hbf,verkehrsgesellschaft-mecklenburg-vorpommern-mbh,VMV,RB Ost,0.23846,553,0.67278,0.72875,1690
Stendal Hbf,Sachsen-Anhalt,52.594723,11.854412,Knotenbahnhof,Regionaler Knoten,8.0,Magdeburg,Magdeburg Hbf,nahverkehrsservice-sachsen-anhalt-gmbh,NASA,RB Südost,0.57242,1173,0.41613,0.98039,2009
Stralsund Hbf,Mecklenburg-Vorpommern,54.308626,13.077321,Knotenbahnhof,Regionaler Knoten,6.0,Rostock,Rostock Hbf,verkehrsgesellschaft-mecklenburg-vorpommern-mbh,VMV,RB Ost,-0.50206,607,0.64315,-1.40692,1701
Velgast,Mecklenburg-Vorpommern,54.277316,12.803137,Zubringerbahnhof,ländlicher Zubringer,3.0,Rostock,Rostock Hbf,verkehrsgesellschaft-mecklenburg-vorpommern-mbh,VMV,RB Ost,0.03425,247,0.71804,0.12146,876
Waren (Müritz),Mecklenburg-Vorpommern,53.521512,12.680678,Zubringerbahnhof,ländlicher Zubringer,3.0,Rostock,Rostock Hbf,verkehrsgesellschaft-mecklenburg-vorpommern-mbh,VMV,RB Ost,0.04923,336,0.52743,0.10417,711
Weimar,Thüringen,50.991487,11.326458,Knotenbahnhof,Regionaler Knoten,5.0,Erfurt,Erfurt Hbf,thuringer-landesamt-fur-bau-und-verkehr,TLBV,RB Südost,0.15953,246,0.5214,0.33333,514
Weißenfels,Sachsen-Anhalt,51.204615,11.970926,Zubringerbahnhof,Regionaler Zubringer,4.0,Halle (Saale),Leipzig Hbf,nahverkehrsservice-sachsen-anhalt-gmbh,NASA,RB Südost,0.05623,343,0.47872,0.10787,658
Wittenberge,Brandenburg,53.003115,11.762871,Knotenbahnhof,Regionaler Knoten,5.0,Schwerin,Rostock Hbf,verkehrsverbund-berlin-brandenburg-gmbh-fur-brandenburg,VBB,RB Ost,0.0493,713,0.52498,0.10379,1501
Züssow,Mecklenburg-Vorpommern,53.973879,13.548191,Zubringerbahnhof,Regionaler Zubringer,2.0,Rostock,Rostock Hbf,verkehrsgesellschaft-mecklenburg-vorpommern-mbh,VMV,RB Ost,0.10788,329,0.60121,0.27052,825
Berlin-Spandau,Berlin,52.5346481,13.1968975,Knotenbahnhof,Großstadtknoten,6.0,Berlin Fernbahnhöfe,Berlin Ostbahnhof,verkehrsverbund-berlin-brandenburg-gmbh-fur-berlin,VBB Berlin,RB Ost,0.44229,6673,0.35062,0.6811,10276
Berlin-Wannsee,Berlin,52.4209723,13.1795275,Knotenbahnhof,Großstadtknoten,7.0,Berlin Regional- und S-Bahnhöfe,Berlin Ostbahnhof,verkehrsverbund-berlin-brandenburg-gmbh-fur-berlin,VBB Berlin,RB Ost,-0.14815,141,0.41975,-0.25532,243
Berlin Zoologischer Garten,Berlin,52.507277,13.331992,Knotenbahnhof,Großstadtknoten,6.0,Berlin Regional- und S-Bahnhöfe,Berlin Ostbahnhof,verkehrsverbund-berlin-brandenburg-gmbh-fur-berlin,VBB Berlin,RB Ost,-0.17549,68,0.90529,-1.85294,718
Anklam,Mecklenburg-Vorpommern,53.856102,13.701827,Zubringerbahnhof,ländlicher Zubringer,2.0,Rostock,Rostock Hbf,verkehrsgesellschaft-mecklenburg-vorpommern-mbh,VMV,RB Ost,0.17939,364,0.55879,0.40659,825
Berlin Gesundbrunnen,Berlin,52.548963,13.388513,Knotenbahnhof,Großstadtknoten,10.0,Berlin Fernbahnhöfe,Berlin Ostbahnhof,verkehrsverbund-berlin-brandenburg-gmbh-fur-berlin,VBB Berlin,RB Ost,-0.56157,1709,0.60293,-1.41428,4304
Berlin Südkreuz,Berlin,52.475047,13.365319,Metropolbahnhof,Metropolbahnhof,10.0,Berlin Fernbahnhöfe,Berlin Ostbahnhof,verkehrsverbund-berlin-brandenburg-gmbh-fur-berlin,VBB Berlin,RB Ost,-0.3316,5670,0.27936,-0.46014,7868
Berlin Hbf,Berlin,52.525592,13.369545,Metropolbahnhof,Metropolbahnhof,14.0,Berlin Fernbahnhöfe,Berlin Ostbahnhof,verkehrsverbund-berlin-brandenburg-gmbh-fur-berlin,VBB Berlin,RB Ost,-0.82886,10937,0.20214,-1.03886,13708
Ostseebad Binz,Mecklenburg-Vorpommern,54.404819,13.600507,Zubringerbahnhof,ländlicher Zubringer,3.0,Rostock,Rostock Hbf,verkehrsgesellschaft-mecklenburg-vorpommern-mbh,VMV,RB Ost,-0.94794,194,0.82585,-5.4433,1114
Hermsdorf-Klosterlausnitz,Thüringen,50.903779,11.858626,Zubringerbahnhof,Regionaler Zubringer,2.0,Chemnitz,Erfurt Hbf,thuringer-landesamt-fur-bau-und-verkehr,TLBV,RB Südost,-0.03448,182,0.55172,-0.07692,406
Jena Paradies,Thüringen,50.924856,11.587461,Knotenbahnhof,Regionaler Knoten,2.0,Chemnitz,Erfurt Hbf,thuringer-landesamt-fur-bau-und-verkehr,TLBV,RB Südost,0.05653,419,0.43607,0.10024,743
Jena West,Thüringen,50.923286,11.577848,Knotenbahnhof,Regionaler Knoten,2.0,Chemnitz,Erfurt Hbf,thuringer-landesamt-fur-bau-und-verkehr,TLBV,RB Südost,0.13584,181,0.47688,0.25967,346
Potsdam Hbf,Brandenburg,52.391509,13.0667031,Knotenbahnhof,Großstadtknoten,6.0,Potsdam,Potsdam,verkehrsverbund-berlin-brandenburg-gmbh-fur-brandenburg,VBB,RB Ost,-0.11523,136,0.44033,-0.20588,243
Ribnitz-Damgarten West,Mecklenburg-Vorpommern,54.239176,12.436965,Zubringerbahnhof,ländlicher Zubringer,2.0,Rostock,Rostock Hbf,verkehrsgesellschaft-mecklenburg-vorpommern-mbh,VMV,RB Ost,0.09572,308,0.76031,0.39935,1285
Stadtroda,Thüringen,50.868216,11.722792,Zubringerbahnhof,ländlicher Zubringer,2.0,Chemnitz,Erfurt Hbf,thuringer-landesamt-fur-bau-und-verkehr,TLBV,RB Südost,-0.21182,179,0.55911,-0.48045,406
Warnemünde,Mecklenburg-Vorpommern,54.176852,12.091271,Knotenbahnhof,Regionaler Knoten,5.0,Rostock,Rostock Hbf,verkehrsgesellschaft-mecklenburg-vorpommern-mbh,VMV,RB Ost,-0.81831,367,0.4831,-1.58311,710
Magdeburg-Buckau,Sachsen-Anhalt,52.109204,11.63004,Zubringerbahnhof,Regionaler Zubringer,4.0,Magdeburg,Magdeburg Hbf,nahverkehrsservice-sachsen-anhalt-gmbh,NASA,RB Südost,0.0,0,1.0,,173
Bernau (b Berlin),Brandenburg,52.6755689,13.5926414,Knotenbahnhof,Regionaler Knoten,4.0,Potsdam,Potsdam,verkehrsverbund-berlin-brandenburg-gmbh-fur-brandenburg,VBB,RB Ost,-0.0604,247,0.17114,-0.07287,298
Oranienburg,Brandenburg,52.753653,13.249613,Knotenbahnhof,Regionaler Knoten,6.0,Potsdam,Potsdam,verkehrsverbund-berlin-brandenburg-gmbh-fur-brandenburg,VBB,RB Ost,0.27707,409,0.42475,0.48166,711
Frankfurt am Main Flughafen Fernbahnhof,Hessen,50.053167,8.570185,Knotenbahnhof,Großstadtknoten,4.0,Frankfurt a. M.,Frankfurt (Main) Hbf,rhein-main-verkehrsverbund-gmbh,RMV,RB Mitte,0.59714,5837,0.22007,0.76563,7484
