name,federalState,latitude,longitude,type,segment,platforms,stationManagement,controlCenter,operator,operatorShort,regionalSector,sumInDelay,sumOutDelay,numTrainsIn,numTrainsOut,numDelayedTrainsIn,numDelayedTrainsOut,stdDevIn,stdDevOut
Aachen Hbf,Nordrhein-Westfalen,50.7678,6.091499,Knotenbahnhof,Großstadtknoten,7.0,Düsseldorf,Duisburg Hbf,zweckverband-nahverkehr-rheinland-gmbh,NVR,RB West,1431,467,287,251,94,89,33.99426801282906,8.460366947103974
Aalen Hbf,Baden-Württemberg,48.841013,10.096271,Knotenbahnhof,Regionaler Knoten,5.0,Ulm,Stuttgart Hbf,nahverkehrsgesellschaft-baden-wurttemberg-mbh,NVBW,RB Südwest,3250,3474,565,565,465,490,37.68666873937869,37.89892636022791
Altenbeken,Nordrhein-Westfalen,51.766433,8.943319,Knotenbahnhof,Regionaler Knoten,6.0,Bielefeld,Dortmund Hbf,zweckverband-nahverkehr-westfalen-lippe,NWL,RB West,1661,1618,162,154,138,141,22.087206302670808,22.283528895390187
Ansbach,Bayern,49.298032,10.578239,Knotenbahnhof,Regionaler Knoten,7.0,Nürnberg,Nürnberg Hbf,bayerische-eisenbahngesellschaft-mbh,BEG,RB Süd,5050,5366,693,688,574,653,48.07803877877573,48.26987712949755
Aschaffenburg Hbf,Bayern,49.980557,9.143697,Knotenbahnhof,Regionaler Knoten,8.0,Nordfranken,Würzburg Hbf,bayerische-eisenbahngesellschaft-mbh,BEG,RB Süd,20060,21785,1858,1786,1375,1521,90.55889452556247,95.4232071591714
Augsburg Hbf,Bayern,48.365441,10.88557,Knotenbahnhof,Großstadtknoten,15.0,Augsburg,München Hbf,bayerische-eisenbahngesellschaft-mbh,BEG,RB Süd,30714,33345,3661,3733,2565,2928,133.70535095158397,136.9354543765285
Aulendorf,Baden-Württemberg,47.953052,9.644046,Knotenbahnhof,Regionaler Knoten,5.0,Friedrichshafen,Stuttgart Hbf,nahverkehrsgesellschaft-baden-wurttemberg-mbh,NVBW,RB Südwest,0,0,0,57,0,0,0.0,0.0
Bad Hersfeld,Hessen,50.869632,9.716182,Knotenbahnhof,Regionaler Knoten,5.0,Kassel,Kassel-Wilhelmshöhe,nordhessischer-verkehrsverbund-mbh,NVV,RB Mitte,3984,4117,921,907,479,512,56.29963536109156,56.438541545061426
Bamberg,Bayern,49.900759,10.899489,Knotenbahnhof,Regionaler Knoten,7.0,Nordfranken,Nürnberg Hbf,bayerische-eisenbahngesellschaft-mbh,BEG,RB Süd,9218,9646,1458,1458,934,1029,67.91898772082574,69.64153084214716
Bensheim,Hessen,49.681329,8.616717,Knotenbahnhof,Regionaler Knoten,4.0,Darmstadt,Frankfurt (Main) Hbf,verkehrsverbund-rhein-neckar-gmbh,VRN,RB Mitte,1601,1573,772,785,182,183,39.23412433165584,38.508736565443925
Bielefeld Hbf,Nordrhein-Westfalen,52.029261,8.532722,Knotenbahnhof,Großstadtknoten,7.0,Bielefeld,Dortmund Hbf,zweckverband-nahverkehr-westfalen-lippe,NWL,RB West,43816,45333,3796,3793,3465,3527,133.4606883305198,136.3589846992989
Schwerte (Ruhr),Nordrhein-Westfalen,51.442281,7.55896,Knotenbahnhof,Regionaler Knoten,6.0,Dortmund,Dortmund Hbf,zweckverband-nahverkehr-westfalen-lippe,NWL,RB West,540,557,52,53,35,35,16.871084261626336,16.88606918041459
Bingen (Rhein) Hbf,Rheinland-Pfalz,49.968729,7.884263,Knotenbahnhof,Regionaler Knoten,6.0,Mainz,Mainz Hbf,zweckverband-schienenpersonennahverkehr-rheinland-pfalz-sud,ZPNV Süd,RB Mitte,6335,6318,484,483,282,287,56.23567106335669,56.23545539338326
Bochum Hbf,Nordrhein-Westfalen,51.478609,7.223275,Knotenbahnhof,Großstadtknoten,8.0,Essen,Essen Hbf,zweckverband-verkehrsverbund-rhein-ruhr-aor,VRR,RB West,32923,33687,3804,3818,2557,2676,135.5139456327042,135.81668277315808
Bonn Hbf,Nordrhein-Westfalen,50.732008,7.097136,Knotenbahnhof,Großstadtknoten,5.0,Köln,Köln Hbf,zweckverband-nahverkehr-rheinland-gmbh,NVR,RB West,19188,16861,2016,2056,1052,1039,95.12686885819454,89.76574486598938
Braunschweig Hbf,Niedersachsen,52.252218,10.540295,Knotenbahnhof,Großstadtknoten,8.0,Braunschweig / Göttingen,Hannover Hbf,regionalverband-grossraum-braunschweig,RVB,RB Nord,11565,12141,2684,2703,1226,1408,78.79695859596026,78.6872577069239
Bremen Hbf,Bremen,53.083481,8.813834,Metropolbahnhof,Metropolbahnhof,9.0,Bremen / Osnabrück,Bremen Hbf,senat-fur-umwelt-bau-verkehr-und-europa-bremen,SUBV,RB Nord,20634,22132,2252,2291,1580,1800,102.67178632833968,103.37588434908548
Bremerhaven Hbf,Bremen,53.534912,8.599555,Knotenbahnhof,Regionaler Knoten,4.0,Bremen / Osnabrück,Bremen Hbf,senat-fur-umwelt-bau-verkehr-und-europa-bremen,SUBV,RB Nord,34,82,46,47,7,28,3.592800100254184,4.927597902790149
Bruchsal,Baden-Württemberg,49.124622,8.589649,Knotenbahnhof,Regionaler Knoten,8.0,Karlsruhe,Mannheim Hbf,nahverkehrsgesellschaft-baden-wurttemberg-mbh,NVBW,RB Südwest,2254,2235,931,923,401,445,34.31180110322914,34.14954937107662
Buchloe,Bayern,48.033723,10.716217,Knotenbahnhof,Regionaler Knoten,5.0,Augsburg,München Hbf,bayerische-eisenbahngesellschaft-mbh,BEG,RB Süd,533,490,95,95,55,76,19.040371116399122,18.112990535877685
Büchen,Schleswig-Holstein,53.474972,10.623298,Knotenbahnhof,Regionaler Knoten,4.0,Schleswig-Holstein,Kiel Hbf,nahverkehrsverbund-schleswig-holstein-gmbh,NAH.SH,RB Nord,2579,2731,781,783,295,315,33.44699308207567,35.991411787813455
Bünde (Westf),Nordrhein-Westfalen,52.202075,8.573876,Knotenbahnhof,Regionaler Knoten,3.0,Bielefeld,Dortmund Hbf,zweckverband-nahverkehr-westfalen-lippe,NWL,RB West,805,851,111,111,100,101,17.59546489298833,17.528832840779238
Celle,Niedersachsen,52.6204548,10.062468,Knotenbahnhof,Regionaler Knoten,6.0,Hannover,Hannover Hbf,landesnahverkehrsgesellschaft-niedersachsen-mbh,LNVG,RB Nord,9491,9784,1637,1698,573,668,102.96836288973705,103.31073755236744
Crailsheim,Baden-Württemberg,49.137872,10.064326,Knotenbahnhof,Regionaler Knoten,4.0,Ulm,Stuttgart Hbf,nahverkehrsgesellschaft-baden-wurttemberg-mbh,NVBW,RB Südwest,3668,3593,562,562,477,512,37.381570968826445,37.66794693409701
Darmstadt Hbf,Hessen,49.872503,8.629636,Knotenbahnhof,Großstadtknoten,11.0,Darmstadt,Frankfurt (Main) Hbf,rhein-main-verkehrsverbund-gmbh,RMV,RB Mitte,2116,2081,949,1025,205,213,49.60323429392781,49.29758161684674
Delmenhorst,Niedersachsen,53.052792,8.629758,Knotenbahnhof,Regionaler Knoten,3.0,Bremen / Osnabrück,Bremen Hbf,landesnahverkehrsgesellschaft-niedersachsen-mbh,LNVG,RB Nord,4086,3883,708,735,586,531,44.516549725684214,44.08986041382473
Singen (Hohentwiel),Baden-Württemberg,47.758438,8.840383,Knotenbahnhof,Regionaler Knoten,9.0,Friedrichshafen,Stuttgart Hbf,nahverkehrsgesellschaft-baden-wurttemberg-mbh,NVBW,RB Südwest,490,305,361,347,79,65,14.349615057389776,11.668709626069031
Dillenburg,Hessen,50.734883,8.294088,Knotenbahnhof,Regionaler Knoten,5.0,Gießen,Kassel-Wilhelmshöhe,rhein-main-verkehrsverbund-gmbh,RMV,RB Mitte,3394,3618,471,497,326,369,44.39674347532531,44.231062837411265
Soest,Nordrhein-Westfalen,51.578419,8.104589,Knotenbahnhof,Regionaler Knoten,3.0,Dortmund,Dortmund Hbf,zweckverband-nahverkehr-westfalen-lippe,NWL,RB West,1662,1636,162,162,151,147,22.811180470252413,22.910646533539456
Donaueschingen,Baden-Württemberg,47.947786,8.498919,Knotenbahnhof,Regionaler Knoten,5.0,Freiburg,Freiburg (Breisgau) Hbf,nahverkehrsgesellschaft-baden-wurttemberg-mbh,NVBW,RB Südwest,121,113,111,111,21,21,6.108532391244419,5.808658660736057
Donauwörth,Bayern,48.714026,10.771443,Knotenbahnhof,Regionaler Knoten,7.0,Augsburg,München Hbf,bayerische-eisenbahngesellschaft-mbh,BEG,RB Süd,5768,5862,664,663,541,539,51.0291433099333,51.44639875527108
Dortmund Hbf,Nordrhein-Westfalen,51.517896,7.45929,Metropolbahnhof,Metropolbahnhof,16.0,Dortmund,Dortmund Hbf,zweckverband-verkehrsverbund-rhein-ruhr-aor,VRR,RB West,57830,43039,5299,5164,3798,3560,180.83875910462064,154.63345973295566
Düsseldorf Flughafen,Nordrhein-Westfalen,51.292009,6.786836,Knotenbahnhof,Großstadtknoten,4.0,Düsseldorf,Düsseldorf Hbf,zweckverband-verkehrsverbund-rhein-ruhr-aor,VRR,RB West,12791,13570,1548,1648,1058,1147,78.15078876123286,79.72742751604338
Düren,Nordrhein-Westfalen,50.809517,6.482451,Knotenbahnhof,Regionaler Knoten,8.0,Düsseldorf,Duisburg Hbf,zweckverband-nahverkehr-rheinland-gmbh,NVR,RB West,879,897,211,216,89,118,22.371875878099313,22.202005825330502
Düsseldorf Hbf,Nordrhein-Westfalen,51.219962,6.794319,Metropolbahnhof,Metropolbahnhof,16.0,Düsseldorf,Düsseldorf Hbf,zweckverband-verkehrsverbund-rhein-ruhr-aor,VRR,RB West,57345,50263,7476,7472,4142,4339,173.47291527824189,160.73291710485375
Duisburg Hbf,Nordrhein-Westfalen,51.429785,6.775903,Metropolbahnhof,Metropolbahnhof,12.0,Duisburg,Duisburg Hbf,zweckverband-verkehrsverbund-rhein-ruhr-aor,VRR,RB West,51740,54052,6176,6291,4170,4464,155.41055753231151,158.61332950692338
Solingen Hbf,Nordrhein-Westfalen,51.160766,7.004187,Knotenbahnhof,Großstadtknoten,5.0,Düsseldorf,Düsseldorf Hbf,zweckverband-verkehrsverbund-rhein-ruhr-aor,VRR,RB West,22349,22798,3213,3230,1297,1311,111.10306507955494,111.67931671011544
Stuttgart Hbf,Baden-Württemberg,48.784084,9.181635,Metropolbahnhof,Metropolbahnhof,18.0,Stuttgart,Stuttgart Hbf,nahverkehrsgesellschaft-baden-wurttemberg-mbh,NVBW,RB Südwest,50798,37215,4848,4865,3626,3650,181.9160187245013,155.48108840351708
Essen Hbf,Nordrhein-Westfalen,51.451355,7.014793,Metropolbahnhof,Metropolbahnhof,11.0,Essen,Essen Hbf,zweckverband-verkehrsverbund-rhein-ruhr-aor,VRR,RB West,46594,43369,5296,5283,3414,3542,158.49656448510925,153.67687326114446
Finnentrop,Nordrhein-Westfalen,51.173048,7.964563,Zubringerbahnhof,Regionaler Zubringer,4.0,Hagen,Düsseldorf Hbf,zweckverband-nahverkehr-westfalen-lippe,NWL,RB West,3475,3660,426,426,370,385,31.82392255455212,32.19162780286302
Frankfurt (Main) Hbf,Hessen,50.107145,8.663789,Metropolbahnhof,Metropolbahnhof,29.0,Frankfurt a. M.,Frankfurt (Main) Hbf,rhein-main-verkehrsverbund-gmbh,RMV,RB Mitte,54097,50413,6093,6254,3924,4317,188.43351411435629,152.12987867371575
Freiburg (Breisgau) Hbf,Baden-Württemberg,47.997697,7.84117,Knotenbahnhof,Großstadtknoten,8.0,Freiburg,Freiburg (Breisgau) Hbf,nahverkehrsgesellschaft-baden-wurttemberg-mbh,NVBW,RB Südwest,2140,2127,184,171,93,83,34.19714715570685,34.18402641964659
Freilassing,Bayern,47.836916,12.977193,Knotenbahnhof,Regionaler Knoten,9.0,Rosenheim,München Hbf,bayerische-eisenbahngesellschaft-mbh,BEG,RB Süd,108,127,87,43,31,37,2.5484845534481395,5.498716250059744
Friedberg (Hess),Hessen,50.332606,8.762056,Knotenbahnhof,Regionaler Knoten,10.0,Gießen,Kassel-Wilhelmshöhe,rhein-main-verkehrsverbund-gmbh,RMV,RB Mitte,1312,1385,621,626,90,96,41.65651615101176,41.975673611027325
Friedrichshafen Stadt,Baden-Württemberg,47.653224,9.4739,Knotenbahnhof,Regionaler Knoten,11.0,Friedrichshafen,Stuttgart Hbf,nahverkehrsgesellschaft-baden-wurttemberg-mbh,NVBW,RB Südwest,0,0,57,0,0,0,0.0,0.0
Fürth (Bay) Hbf,Bayern,49.469707,10.989988,Knotenbahnhof,Regionaler Knoten,8.0,Nürnberg,Nürnberg Hbf,bayerische-eisenbahngesellschaft-mbh,BEG,RB Süd,192,192,55,55,5,5,14.239840728500582,14.239840728500582
Fulda,Hessen,50.554723,9.683977,Knotenbahnhof,Großstadtknoten,10.0,Kassel,Kassel-Wilhelmshöhe,rhein-main-verkehrsverbund-gmbh,RMV,RB Mitte,28418,31232,4677,4670,2278,2844,139.176305463684,140.08918487115432
Traunstein,Bayern,47.869727,12.638801,Knotenbahnhof,Regionaler Knoten,6.0,Rosenheim,München Hbf,bayerische-eisenbahngesellschaft-mbh,BEG,RB Süd,218,193,88,55,36,36,5.85700780440145,5.708690505433072
Gelsenkirchen Hbf,Nordrhein-Westfalen,51.504903,7.102455,Knotenbahnhof,Großstadtknoten,6.0,Essen,Essen Hbf,zweckverband-verkehrsverbund-rhein-ruhr-aor,VRR,RB West,5995,6103,1149,1150,430,434,63.24622220533424,63.439611351033264
Treuchtlingen,Bayern,48.961267,10.908159,Knotenbahnhof,Regionaler Knoten,7.0,Nürnberg,Nürnberg Hbf,bayerische-eisenbahngesellschaft-mbh,BEG,RB Süd,3174,3292,299,299,253,265,33.58207338754005,33.68197570697894
Gießen,Hessen,50.579059,8.661462,Knotenbahnhof,Regionaler Knoten,11.0,Gießen,Kassel-Wilhelmshöhe,rhein-main-verkehrsverbund-gmbh,RMV,RB Mitte,1243,1293,419,426,92,98,40.91531878261788,41.45846155097805
Göppingen,Baden-Württemberg,48.700027,9.651969,Knotenbahnhof,Regionaler Knoten,7.0,Ulm,Stuttgart Hbf,nahverkehrsgesellschaft-baden-wurttemberg-mbh,NVBW,RB Südwest,1149,1137,52,52,47,47,16.47726849553367,16.54587069646298
Göttingen,Niedersachsen,51.536815,9.926072,Knotenbahnhof,Großstadtknoten,8.0,Braunschweig / Göttingen,Hannover Hbf,landesnahverkehrsgesellschaft-niedersachsen-mbh,LNVG,RB Nord,34179,24001,4495,4382,2445,2472,142.12886657037112,130.2673710867123
Treysa,Hessen,50.910661,9.185673,Zubringerbahnhof,Regionaler Zubringer,4.0,Kassel,Kassel-Wilhelmshöhe,nordhessischer-verkehrsverbund-mbh,NVV,RB Mitte,1275,1321,427,426,89,99,42.525813813078415,43.042544849987955
Günzburg,Bayern,48.4605626,10.2792621,Knotenbahnhof,Regionaler Knoten,6.0,Augsburg,München Hbf,bayerische-eisenbahngesellschaft-mbh,BEG,RB Süd,2598,2509,360,355,222,209,38.62761342438811,38.22258249911123
Hagen Hbf,Nordrhein-Westfalen,51.362747,7.460249,Knotenbahnhof,Großstadtknoten,12.0,Hagen,Düsseldorf Hbf,zweckverband-verkehrsverbund-rhein-ruhr-aor,VRR,RB West,39896,40892,3753,3771,2632,2689,140.98548904588588,141.32480885907253
Hamburg-Harburg,Hamburg,53.455908,9.991701,Knotenbahnhof,Großstadtknoten,8.0,Hamburg,Hamburg Hbf,hamburger-verkehrsverbund-gmbh,BWVI,RB Nord,30068,31212,4926,5007,1885,2098,158.28810463659343,158.35039133896493
Hamm (Westf) Hbf,Nordrhein-Westfalen,51.678078,7.807821,Knotenbahnhof,Großstadtknoten,14.0,Dortmund,Dortmund Hbf,zweckverband-nahverkehr-westfalen-lippe,NWL,RB West,36993,42768,3707,3675,2895,3098,136.24441341486855,137.23108041645855
Hanau Hbf,Hessen,50.120953,8.929,Knotenbahnhof,Regionaler Knoten,11.0,Frankfurt a. M.,Frankfurt (Main) Hbf,rhein-main-verkehrsverbund-gmbh,RMV,RB Mitte,9325,9641,1137,1144,593,608,61.607122321283,61.81083509046477
Hannover Hbf,Niedersachsen,52.376761,9.741021,Metropolbahnhof,Metropolbahnhof,12.0,Hannover,Hannover Hbf,region-hannover,RH,RB Nord,75441,76142,8381,8458,5220,6004,206.65001346955387,210.0343139851862
Heide (Holst),Schleswig-Holstein,54.193563,9.101029,Knotenbahnhof,Regionaler Knoten,5.0,Schleswig-Holstein,Kiel Hbf,nahverkehrsverbund-schleswig-holstein-gmbh,NAH.SH,RB Nord,6683,6994,599,599,412,418,57.261357293288995,58.18354596827235
Heidelberg Hbf,Baden-Württemberg,49.403567,8.675442,Knotenbahnhof,Großstadtknoten,9.0,Mannheim,Mannheim Hbf,nahverkehrsgesellschaft-baden-wurttemberg-mbh,NVBW,RB Südwest,11381,11755,1832,1928,720,790,100.28507016698381,100.4011871794697
Helmstedt,Niedersachsen,52.222086,11.010553,Zubringerbahnhof,Regionaler Zubringer,4.0,Braunschweig / Göttingen,Hannover Hbf,regionalverband-grossraum-braunschweig,RVB,RB Nord,2629,2698,620,625,390,399,42.27664609818435,42.37059639579146
Herborn (Dillkr),Hessen,50.684405,8.30814,Zubringerbahnhof,Regionaler Zubringer,3.0,Gießen,Kassel-Wilhelmshöhe,rhein-main-verkehrsverbund-gmbh,RMV,RB Mitte,151,153,32,41,14,14,10.19878036667826,9.036106435417587
Herford,Nordrhein-Westfalen,52.119609,8.663643,Knotenbahnhof,Regionaler Knoten,7.0,Bielefeld,Dortmund Hbf,zweckverband-nahverkehr-westfalen-lippe,NWL,RB West,6531,6664,798,798,517,583,58.77872489929947,59.05659514020424
Tuttlingen,Baden-Württemberg,47.980579,8.798542,Knotenbahnhof,Regionaler Knoten,5.0,Freiburg,Freiburg (Breisgau) Hbf,nahverkehrsgesellschaft-baden-wurttemberg-mbh,NVBW,RB Südwest,631,659,305,307,127,131,14.76211797317141,14.690476614691482
Uelzen,Niedersachsen,52.969781,10.553053,Knotenbahnhof,Regionaler Knoten,7.0,Braunschweig / Göttingen,Hannover Hbf,landesnahverkehrsgesellschaft-niedersachsen-mbh,LNVG,RB Nord,11746,11761,1720,1748,842,912,112.69826617729072,112.88368214266536
Hildesheim Hbf,Niedersachsen,52.160626,9.953497,Knotenbahnhof,Großstadtknoten,9.0,Braunschweig / Göttingen,Hannover Hbf,landesnahverkehrsgesellschaft-niedersachsen-mbh,LNVG,RB Nord,5644,6250,1529,1537,662,788,47.23974063974029,47.70766737186373
Ulm Hbf,Baden-Württemberg,48.399437,9.982227,Knotenbahnhof,Großstadtknoten,12.0,Ulm,Stuttgart Hbf,nahverkehrsgesellschaft-baden-wurttemberg-mbh,NVBW,RB Südwest,26472,28374,3103,3116,2339,2575,118.24382556064984,124.457635513165
Unna,Nordrhein-Westfalen,51.538982,7.692858,Knotenbahnhof,Regionaler Knoten,8.0,Dortmund,Dortmund Hbf,zweckverband-nahverkehr-westfalen-lippe,NWL,RB West,618,620,108,109,40,39,17.934371411619455,17.8307147299829
Viersen,Nordrhein-Westfalen,51.254947,6.403896,Knotenbahnhof,Regionaler Knoten,5.0,Düsseldorf,Duisburg Hbf,zweckverband-verkehrsverbund-rhein-ruhr-aor,VRR,RB West,241,238,46,46,10,10,13.79723769875485,13.651706198333008
Homburg (Saar) Hbf,Saarland,49.328082,7.337035,Knotenbahnhof,Regionaler Knoten,7.0,Saarbrücken,Saarbrücken Hbf,zweckverband-personennahverkehr-saarland,ZPS,RB Mitte,712,750,149,149,94,109,18.357251392920038,18.571961107046818
Horb,Baden-Württemberg,48.441471,8.688982,Knotenbahnhof,Regionaler Knoten,6.0,Karlsruhe,Mannheim Hbf,nahverkehrsgesellschaft-baden-wurttemberg-mbh,NVBW,RB Südwest,1084,1107,296,268,168,168,18.289367223709686,18.741216912138956
Husum,Schleswig-Holstein,54.472271,9.055026,Knotenbahnhof,Regionaler Knoten,4.0,Schleswig-Holstein,Kiel Hbf,nahverkehrsverbund-schleswig-holstein-gmbh,NAH.SH,RB Nord,7182,7126,649,653,413,421,58.17542903389585,58.163974115282464
Immendingen,Baden-Württemberg,47.936007,8.729536,Zubringerbahnhof,Regionaler Zubringer,5.0,Freiburg,Freiburg (Breisgau) Hbf,nahverkehrsgesellschaft-baden-wurttemberg-mbh,NVBW,RB Südwest,74,69,49,49,6,6,4.856792704465537,4.609403284532151
Ingolstadt Hbf,Bayern,48.744541,11.437337,Knotenbahnhof,Großstadtknoten,7.0,Rosenheim,München Hbf,bayerische-eisenbahngesellschaft-mbh,BEG,RB Süd,18267,18761,2556,2576,1575,1721,109.2727361866512,109.54513641799977
Kaiserslautern Hbf,Rheinland-Pfalz,49.436137,7.768716,Knotenbahnhof,Großstadtknoten,11.0,Kaiserslautern,Saarbrücken Hbf,zweckverband-schienenpersonennahverkehr-rheinland-pfalz-sud,ZPNV Süd,RB Mitte,626,638,148,148,85,99,18.52649264273449,18.34385244063977
Karlsruhe Hbf,Baden-Württemberg,48.993515,8.402181,Metropolbahnhof,Metropolbahnhof,16.0,Karlsruhe,Mannheim Hbf,nahverkehrsgesellschaft-baden-wurttemberg-mbh,NVBW,RB Südwest,7326,3989,1342,1284,600,451,73.34241673093875,58.50752761614395
Wanne-Eickel Hbf,Nordrhein-Westfalen,51.531256,7.165783,Knotenbahnhof,Großstadtknoten,8.0,Essen,Essen Hbf,zweckverband-verkehrsverbund-rhein-ruhr-aor,VRR,RB West,2953,2957,559,559,247,258,43.44676944269249,43.53170610337192
Kaufbeuren,Bayern,47.875432,10.629496,Knotenbahnhof,Regionaler Knoten,4.0,Augsburg,München Hbf,bayerische-eisenbahngesellschaft-mbh,BEG,RB Süd,529,603,94,94,58,82,18.979202160304148,18.982693196297152
Warburg (Westf),Nordrhein-Westfalen,51.492953,9.163845,Zubringerbahnhof,Regionaler Zubringer,4.0,Hagen,Düsseldorf Hbf,zweckverband-nahverkehr-westfalen-lippe,NWL,RB West,1614,1592,162,162,138,133,20.951896501487063,21.557369018808863
Kempten (Allgäu) Hbf,Bayern,47.711745,10.31761,Knotenbahnhof,Regionaler Knoten,5.0,Augsburg,München Hbf,bayerische-eisenbahngesellschaft-mbh,BEG,RB Süd,2557,2671,147,147,115,129,31.98992881058173,32.62207016679569
Kiel Hbf,Schleswig-Holstein,54.314985,10.131976,Knotenbahnhof,Großstadtknoten,8.0,Schleswig-Holstein,Kiel Hbf,nahverkehrsverbund-schleswig-holstein-gmbh,NAH.SH,RB Nord,912,113,230,220,38,29,17.865371136853017,5.291639762758787
Koblenz Hbf,Rheinland-Pfalz,50.350929,7.588345,Knotenbahnhof,Großstadtknoten,11.0,Koblenz,Mainz Hbf,zweckverband-schienenpersonennahverkehr-rheinland-pfalz-nord,ZVRP Nord,RB Mitte,19222,16155,1604,1612,909,888,93.18842442356872,85.06741494015414
Köln Hbf,Nordrhein-Westfalen,50.94303,6.958729,Metropolbahnhof,Metropolbahnhof,11.0,Köln,Köln Hbf,zweckverband-nahverkehr-rheinland-gmbh,NVR,RB West,69760,41377,6007,6224,3874,3550,200.59300573062112,142.64162136006627
Krefeld Hbf,Nordrhein-Westfalen,51.325717,6.569885,Knotenbahnhof,Großstadtknoten,5.0,Duisburg,Duisburg Hbf,zweckverband-verkehrsverbund-rhein-ruhr-aor,VRR,RB West,254,254,47,47,13,14,13.67584283145965,13.548077955238561
Kreuztal,Nordrhein-Westfalen,50.956029,7.991696,Zubringerbahnhof,Regionaler Zubringer,3.0,Hagen,Düsseldorf Hbf,zweckverband-nahverkehr-westfalen-lippe,NWL,RB West,3287,3401,420,426,331,338,38.00660784626031,38.29401088527965
Weilheim (Oberbay),Bayern,47.845363,11.14286,Knotenbahnhof,Regionaler Knoten,5.0,Rosenheim,München Hbf,bayerische-eisenbahngesellschaft-mbh,BEG,RB Süd,32,24,103,103,9,4,2.302032504727651,2.1597408732575767
Leer (Ostfriesl),Niedersachsen,53.23165,7.465283,Knotenbahnhof,Regionaler Knoten,3.0,Bremen / Osnabrück,Bremen Hbf,landesnahverkehrsgesellschaft-niedersachsen-mbh,LNVG,RB Nord,8252,8512,1301,1408,750,966,74.24187487655804,72.44083015559569
Lichtenfels,Bayern,50.146452,11.059472,Knotenbahnhof,Regionaler Knoten,6.0,Nordfranken,Nürnberg Hbf,bayerische-eisenbahngesellschaft-mbh,BEG,RB Süd,1888,1968,281,281,184,224,23.98894407773326,24.04409046410853
Lüneburg,Niedersachsen,53.249656,10.41989,Knotenbahnhof,Regionaler Knoten,6.0,Hamburg,Hamburg Hbf,landesnahverkehrsgesellschaft-niedersachsen-mbh,LNVG,RB Nord,13786,13823,2044,2085,1001,1079,119.56087650461605,118.66193453804905
Mainz Hbf,Rheinland-Pfalz,50.001117,8.25872,Knotenbahnhof,Großstadtknoten,14.0,Mainz,Mainz Hbf,zweckverband-schienenpersonennahverkehr-rheinland-pfalz-sud,ZPNV Süd,RB Mitte,16725,16309,1887,1887,919,982,91.75602680003196,87.9474442701097
Mannheim Hbf,Baden-Württemberg,49.479354,8.468921,Metropolbahnhof,Metropolbahnhof,11.0,Mannheim,Mannheim Hbf,nahverkehrsgesellschaft-baden-wurttemberg-mbh,NVBW,RB Südwest,48829,48490,4512,4666,3328,3495,181.156377535135,182.11278833639994
Memmingen,Bayern,47.985581,10.186853,Knotenbahnhof,Regionaler Knoten,5.0,Augsburg,München Hbf,bayerische-eisenbahngesellschaft-mbh,BEG,RB Süd,1611,1722,51,51,49,49,22.67348801626096,23.317451177428566
Wiesbaden Hbf,Hessen,50.070791,8.243731,Knotenbahnhof,Großstadtknoten,10.0,Darmstadt,Frankfurt (Main) Hbf,rhein-main-verkehrsverbund-gmbh,RMV,RB Mitte,2290,784,449,404,188,148,39.04622032590819,16.217789132625906
Witten Hbf,Nordrhein-Westfalen,51.435544,7.329442,Knotenbahnhof,Regionaler Knoten,4.0,Essen,Essen Hbf,zweckverband-verkehrsverbund-rhein-ruhr-aor,VRR,RB West,3313,3105,419,427,365,352,33.41600184781573,33.342011009545494
Minden (Westf),Nordrhein-Westfalen,52.290138,8.934728,Knotenbahnhof,Regionaler Knoten,5.0,Bielefeld,Dortmund Hbf,zweckverband-nahverkehr-westfalen-lippe,NWL,RB West,13874,14270,1703,1703,1120,1186,78.2817946198532,78.97308809793286
Mönchengladbach Hbf,Nordrhein-Westfalen,51.196583,6.446111,Knotenbahnhof,Großstadtknoten,9.0,Düsseldorf,Duisburg Hbf,zweckverband-verkehrsverbund-rhein-ruhr-aor,VRR,RB West,752,430,96,64,52,20,16.40346032897198,25.514183653467278
Worms Hbf,Rheinland-Pfalz,49.63494,8.356448,Knotenbahnhof,Regionaler Knoten,8.0,Mainz,Mainz Hbf,zweckverband-schienenpersonennahverkehr-rheinland-pfalz-sud,ZPNV Süd,RB Mitte,260,247,152,149,42,41,10.77299356693833,10.73727066790378
Mülheim (Ruhr) Hbf,Nordrhein-Westfalen,51.431342,6.88651,Knotenbahnhof,Großstadtknoten,4.0,Duisburg,Duisburg Hbf,zweckverband-verkehrsverbund-rhein-ruhr-aor,VRR,RB West,1985,2006,295,295,167,171,33.16151724201192,33.28787784228973
Würzburg Hbf,Bayern,49.801796,9.93578,Knotenbahnhof,Großstadtknoten,11.0,Nordfranken,Würzburg Hbf,bayerische-eisenbahngesellschaft-mbh,BEG,RB Süd,39108,39933,3972,4023,2865,3212,138.97523529910137,139.43698909388988
München Hbf,Bayern,48.140232,11.558335,Metropolbahnhof,Metropolbahnhof,34.0,München,München Hbf,bayerische-eisenbahngesellschaft-mbh,BEG,RB Süd,58636,13474,4654,5454,3416,3291,198.62718350864608,57.38255469433803
München Ost,Bayern,48.12744,11.604971,Knotenbahnhof,Großstadtknoten,12.0,München,München Hbf,bayerische-eisenbahngesellschaft-mbh,BEG,RB Süd,162,175,53,163,20,27,6.654168794652702,6.631078878092626
Münster (Westf) Hbf,Nordrhein-Westfalen,51.956566,7.635715,Knotenbahnhof,Großstadtknoten,9.0,Münster (Westf),Essen Hbf,zweckverband-nahverkehr-westfalen-lippe,NWL,RB West,31054,29056,2703,2652,2076,2125,125.41007661479728,119.42970329445572
Wuppertal Hbf,Nordrhein-Westfalen,51.254363,7.149543,Knotenbahnhof,Großstadtknoten,5.0,Düsseldorf,Düsseldorf Hbf,zweckverband-verkehrsverbund-rhein-ruhr-aor,VRR,RB West,42089,42133,3807,3818,2627,2645,143.8391836586412,145.63584575915849
Neumünster,Schleswig-Holstein,54.075752,9.979816,Knotenbahnhof,Regionaler Knoten,6.0,Schleswig-Holstein,Kiel Hbf,nahverkehrsverbund-schleswig-holstein-gmbh,NAH.SH,RB Nord,1233,1158,271,271,62,68,21.689822343629157,20.237312326316218
Neuss Hbf,Nordrhein-Westfalen,51.204351,6.684527,Knotenbahnhof,Großstadtknoten,8.0,Düsseldorf,Duisburg Hbf,zweckverband-verkehrsverbund-rhein-ruhr-aor,VRR,RB West,542,530,48,48,41,40,10.247902397373782,10.429006874921654
Neustadt (Weinstr) Hbf,Rheinland-Pfalz,49.349553,8.140757,Knotenbahnhof,Regionaler Knoten,6.0,Kaiserslautern,Saarbrücken Hbf,zweckverband-schienenpersonennahverkehr-rheinland-pfalz-sud,ZPNV Süd,RB Mitte,617,627,149,149,77,92,19.11991201625523,18.90077680120841
Nienburg (Weser),Niedersachsen,52.645566,9.217753,Knotenbahnhof,Regionaler Knoten,6.0,Hannover,Hannover Hbf,landesnahverkehrsgesellschaft-niedersachsen-mbh,LNVG,RB Nord,3525,3337,672,672,474,449,38.26593359311056,38.06748910059829
Nürnberg Hbf,Bayern,49.445616,11.082989,Metropolbahnhof,Metropolbahnhof,21.0,Nürnberg,Nürnberg Hbf,bayerische-eisenbahngesellschaft-mbh,BEG,RB Süd,62164,60085,6896,6882,5087,5804,186.0230078631844,174.57011373783854
Oberhausen Hbf,Nordrhein-Westfalen,51.474878,6.851588,Knotenbahnhof,Großstadtknoten,10.0,Duisburg,Duisburg Hbf,zweckverband-verkehrsverbund-rhein-ruhr-aor,VRR,RB West,7045,6763,1682,1704,555,575,69.6369883732289,64.87081162760012
Offenburg,Baden-Württemberg,48.476475,7.946723,Knotenbahnhof,Regionaler Knoten,7.0,Freiburg,Freiburg (Breisgau) Hbf,nahverkehrsgesellschaft-baden-wurttemberg-mbh,NVBW,RB Südwest,1317,1298,257,270,62,63,44.005618384285,43.09429371990624
Oldenburg (Oldb) Hbf,Niedersachsen,53.144323,8.222713,Knotenbahnhof,Großstadtknoten,7.0,Bremen / Osnabrück,Bremen Hbf,landesnahverkehrsgesellschaft-niedersachsen-mbh,LNVG,RB Nord,4566,2717,706,673,509,565,47.65698697441455,31.305975956106458
Osnabrück Hbf,Niedersachsen,52.272851,8.061781,Knotenbahnhof,Großstadtknoten,9.0,Bremen / Osnabrück,Bremen Hbf,landesnahverkehrsgesellschaft-niedersachsen-mbh,LNVG,RB Nord,19146,19850,1844,1840,1222,1360,96.908748913681,97.47096221862064
Paderborn Hbf,Nordrhein-Westfalen,51.712979,8.740505,Knotenbahnhof,Regionaler Knoten,6.0,Bielefeld,Dortmund Hbf,zweckverband-nahverkehr-westfalen-lippe,NWL,RB West,1764,1705,162,162,155,155,21.749019808532097,21.903561087515374
Passau Hbf,Bayern,48.573632,13.450776,Knotenbahnhof,Regionaler Knoten,7.0,Regensburg,Nürnberg Hbf,bayerische-eisenbahngesellschaft-mbh,BEG,RB Süd,1980,0,93,14,65,0,42.19308825773721,0.0
Pforzheim Hbf,Baden-Württemberg,48.894152,8.703099,Knotenbahnhof,Großstadtknoten,9.0,Karlsruhe,Mannheim Hbf,nahverkehrsgesellschaft-baden-wurttemberg-mbh,NVBW,RB Südwest,1226,1209,495,499,160,157,21.98601413244483,21.96219869747721
Plattling,Bayern,48.779619,12.86394,Knotenbahnhof,Regionaler Knoten,7.0,Regensburg,Nürnberg Hbf,bayerische-eisenbahngesellschaft-mbh,BEG,RB Süd,2141,2165,93,93,62,67,43.40983235771715,43.46727638623419
Plochingen,Baden-Württemberg,48.71308,9.41081,Knotenbahnhof,Regionaler Knoten,8.0,Stuttgart,Stuttgart Hbf,nahverkehrsgesellschaft-baden-wurttemberg-mbh,NVBW,RB Südwest,1184,1177,52,52,48,49,16.253645605682227,16.314349327105187
Recklinghausen Hbf,Nordrhein-Westfalen,51.616359,7.20349,Knotenbahnhof,Großstadtknoten,3.0,Münster (Westf),Essen Hbf,zweckverband-verkehrsverbund-rhein-ruhr-aor,VRR,RB West,6854,6955,984,978,516,532,65.68219002654078,65.62704973723315
Regensburg Hbf,Bayern,49.011672,12.099617,Knotenbahnhof,Großstadtknoten,8.0,Regensburg,Nürnberg Hbf,bayerische-eisenbahngesellschaft-mbh,BEG,RB Süd,2123,2212,93,93,64,73,43.17824159668552,43.732026488610224
Remagen,Rheinland-Pfalz,50.577215,7.229779,Knotenbahnhof,Regionaler Knoten,5.0,Koblenz,Mainz Hbf,zweckverband-schienenpersonennahverkehr-rheinland-pfalz-nord,ZVRP Nord,RB Mitte,6425,6388,853,856,362,366,51.85319247646361,51.75493786462295
Rheine,Nordrhein-Westfalen,52.276299,7.434255,Knotenbahnhof,Regionaler Knoten,6.0,Münster (Westf),Essen Hbf,zweckverband-nahverkehr-westfalen-lippe,NWL,RB West,5968,5934,722,717,454,444,58.27949156391217,58.080688988211854
Rheydt Hbf,Nordrhein-Westfalen,51.163027,6.439564,Knotenbahnhof,Regionaler Knoten,4.0,Düsseldorf,Duisburg Hbf,zweckverband-verkehrsverbund-rhein-ruhr-aor,VRR,RB West,280,274,105,105,15,15,14.626279027167428,14.460335074271033
Rosenheim,Bayern,47.850018,12.119202,Knotenbahnhof,Regionaler Knoten,8.0,Rosenheim,München Hbf,bayerische-eisenbahngesellschaft-mbh,BEG,RB Süd,126,135,207,163,25,28,5.400155856821389,5.449252440424139
Rottweil,Baden-Württemberg,48.165304,8.639295,Knotenbahnhof,Regionaler Knoten,6.0,Freiburg,Freiburg (Breisgau) Hbf,nahverkehrsgesellschaft-baden-wurttemberg-mbh,NVBW,RB Südwest,1079,705,331,225,191,112,18.022261051155382,18.282070139525334
Saarbrücken Hbf,Saarland,49.241065,6.991021,Knotenbahnhof,Großstadtknoten,10.0,Saarbrücken,Saarbrücken Hbf,zweckverband-personennahverkehr-saarland,ZPS,RB Mitte,494,55,161,109,54,21,17.376248740019346,3.252942153353057
Schwäbisch Gmünd,Baden-Württemberg,48.801011,9.787795,Knotenbahnhof,Regionaler Knoten,3.0,Ulm,Stuttgart Hbf,nahverkehrsgesellschaft-baden-wurttemberg-mbh,NVBW,RB Südwest,3449,3520,565,564,484,491,37.57041099893127,37.85829224958941
Andernach,Rheinland-Pfalz,50.434542,7.404839,Knotenbahnhof,Regionaler Knoten,4.0,Koblenz,Mainz Hbf,zweckverband-schienenpersonennahverkehr-rheinland-pfalz-nord,ZVRP Nord,RB Mitte,6473,6281,797,801,378,362,51.882814842742285,51.725237829884506
Hausach,Baden-Württemberg,48.284924,8.181665,Zubringerbahnhof,Regionaler Zubringer,3.0,Freiburg,Freiburg (Breisgau) Hbf,nahverkehrsgesellschaft-baden-wurttemberg-mbh,NVBW,RB Südwest,145,147,111,111,22,24,6.809304474041299,6.47694458009857
Marburg (Lahn),Hessen,50.819272,8.775014,Knotenbahnhof,Regionaler Knoten,6.0,Gießen,Kassel-Wilhelmshöhe,rhein-main-verkehrsverbund-gmbh,RMV,RB Mitte,1200,1283,480,477,73,84,41.86409719621844,42.75382271869796
Mühlacker,Baden-Württemberg,48.953192,8.846101,Knotenbahnhof,Regionaler Knoten,5.0,Karlsruhe,Mannheim Hbf,nahverkehrsgesellschaft-baden-wurttemberg-mbh,NVBW,RB Südwest,1252,1156,495,499,135,137,22.403266011009357,21.776102816648972
Villingen (Schwarzw),Baden-Württemberg,48.058022,8.465261,Knotenbahnhof,Regionaler Knoten,4.0,Freiburg,Freiburg (Breisgau) Hbf,nahverkehrsgesellschaft-baden-wurttemberg-mbh,NVBW,RB Südwest,98,102,111,111,16,17,6.057298791966132,6.099820493022378
Wabern (Bz Kassel),Hessen,51.103134,9.35804,Zubringerbahnhof,Regionaler Zubringer,5.0,Kassel,Kassel-Wilhelmshöhe,nordhessischer-verkehrsverbund-mbh,NVV,RB Mitte,1050,1101,354,358,74,80,37.851347939829694,39.30200107808262
Wetzlar,Hessen,50.565631,8.503819,Knotenbahnhof,Regionaler Knoten,5.0,Gießen,Kassel-Wilhelmshöhe,rhein-main-verkehrsverbund-gmbh,RMV,RB Mitte,3292,3379,478,495,365,376,35.57734231453675,35.334371737750956
Haiger,Hessen,50.741352,8.220657,Zubringerbahnhof,Regionaler Zubringer,3.0,Gießen,Kassel-Wilhelmshöhe,rhein-main-verkehrsverbund-gmbh,RMV,RB Mitte,57,61,20,43,3,6,10.747215061537913,7.512632403205426
Ainring,Bayern,47.815033,12.964501,Zubringerbahnhof,ländlicher Zubringer,1.0,Rosenheim,München Hbf,bayerische-eisenbahngesellschaft-mbh,BEG,RB Süd,75,128,42,42,24,35,2.225525032991961,2.59410571039453
Altena (Westf),Nordrhein-Westfalen,51.301981,7.668808,Zubringerbahnhof,ländlicher Zubringer,2.0,Hagen,Düsseldorf Hbf,zweckverband-nahverkehr-westfalen-lippe,NWL,RB West,3456,3468,426,425,365,357,32.07211370188393,32.64757512558805
Hude,Niedersachsen,53.109429,8.460956,Knotenbahnhof,Regionaler Knoten,4.0,Bremen / Osnabrück,Bremen Hbf,landesnahverkehrsgesellschaft-niedersachsen-mbh,LNVG,RB Nord,3025,3048,605,616,483,467,33.81951339005916,33.767763233265406
Lennestadt-Altenhundem,Nordrhein-Westfalen,51.104132,8.071517,Zubringerbahnhof,Regionaler Zubringer,3.0,Hagen,Düsseldorf Hbf,zweckverband-nahverkehr-westfalen-lippe,NWL,RB West,3342,3425,479,477,350,362,34.66565698026084,34.73208323156878
Lippstadt,Nordrhein-Westfalen,51.670687,8.348785,Knotenbahnhof,Regionaler Knoten,3.0,Dortmund,Dortmund Hbf,zweckverband-nahverkehr-westfalen-lippe,NWL,RB West,1687,1705,162,162,151,149,21.628706843855237,22.19459015014184
Neu-Edingen/Friedrichsfeld,Baden-Württemberg,49.44867,8.580125,Zubringerbahnhof,Regionaler Zubringer,5.0,Mannheim,Mannheim Hbf,nahverkehrsgesellschaft-baden-wurttemberg-mbh,NVBW,RB Südwest,139,144,130,130,7,7,15.399060170382286,15.369800559238536
Augustfehn,Niedersachsen,53.22089,7.759659,Zubringerbahnhof,ländlicher Zubringer,2.0,Bremen / Osnabrück,Bremen Hbf,landesnahverkehrsgesellschaft-niedersachsen-mbh,LNVG,RB Nord,2753,3220,616,620,391,468,34.346894149080555,36.99738862721748
Montabaur,Rheinland-Pfalz,50.444834,7.825333,Knotenbahnhof,Regionaler Knoten,5.0,Koblenz,Mainz Hbf,zweckverband-schienenpersonennahverkehr-rheinland-pfalz-nord,ZVRP Nord,RB Mitte,8355,9508,2333,2327,875,1048,66.97889259515662,72.97919098327982
Bad Nauheim,Hessen,50.367904,8.749334,Knotenbahnhof,Regionaler Knoten,3.0,Gießen,Kassel-Wilhelmshöhe,rhein-main-verkehrsverbund-gmbh,RMV,RB Mitte,3195,3226,491,495,321,351,35.45766261389149,34.49528941170555
Bad Oeynhausen,Nordrhein-Westfalen,52.205398,8.796523,Knotenbahnhof,Regionaler Knoten,3.0,Bielefeld,Dortmund Hbf,zweckverband-nahverkehr-westfalen-lippe,NWL,RB West,4330,4536,409,394,279,318,43.93750299162305,44.8195285314919
Bad Reichenhall,Bayern,47.731168,12.881825,Zubringerbahnhof,Regionaler Zubringer,2.0,Rosenheim,München Hbf,bayerische-eisenbahngesellschaft-mbh,BEG,RB Süd,72,49,42,42,31,21,1.6569986720885252,1.5759885270516325
Bad Reichenhall-Kirchberg,Bayern,47.718538,12.874001,Zubringerbahnhof,ländlicher Zubringer,1.0,Rosenheim,München Hbf,bayerische-eisenbahngesellschaft-mbh,BEG,RB Süd,47,82,42,42,25,34,1.2533346924647288,1.738409434952186
Bad Zwischenahn,Niedersachsen,53.182547,8.003123,Zubringerbahnhof,Regionaler Zubringer,2.0,Bremen / Osnabrück,Bremen Hbf,landesnahverkehrsgesellschaft-niedersachsen-mbh,LNVG,RB Nord,3113,3436,615,621,449,513,35.624074450351394,36.033896025022145
Baden-Baden,Baden-Württemberg,48.790327,8.190831,Knotenbahnhof,Regionaler Knoten,5.0,Karlsruhe,Mannheim Hbf,nahverkehrsgesellschaft-baden-wurttemberg-mbh,NVBW,RB Südwest,1636,1484,312,256,104,84,43.79523452015926,43.182255497231466
Norden,Niedersachsen,53.588196,7.218913,Zubringerbahnhof,ländlicher Zubringer,2.0,Bremen / Osnabrück,Bremen Hbf,landesnahverkehrsgesellschaft-niedersachsen-mbh,LNVG,RB Nord,2646,2868,546,610,293,331,35.71424184591701,41.8946201952504
Bayerisch Gmain,Bayern,47.720375,12.89507,Zubringerbahnhof,ländlicher Zubringer,1.0,Rosenheim,München Hbf,bayerische-eisenbahngesellschaft-mbh,BEG,RB Süd,70,47,42,42,33,25,1.3910281627607315,1.2533346924647288
Radolfzell,Baden-Württemberg,47.735873,8.968984,Knotenbahnhof,Regionaler Knoten,6.0,Friedrichshafen,Stuttgart Hbf,nahverkehrsgesellschaft-baden-wurttemberg-mbh,NVBW,RB Südwest,257,243,236,307,45,45,12.798287533977364,11.812782110489382
Berchtesgaden Hbf,Bayern,47.626688,12.999058,Zubringerbahnhof,ländlicher Zubringer,3.0,Rosenheim,München Hbf,bayerische-eisenbahngesellschaft-mbh,BEG,RB Süd,0,38,7,42,0,32,0.0,0.7261500150568166
Bad Bevensen,Niedersachsen,53.078247,10.574141,Zubringerbahnhof,Regionaler Zubringer,2.0,Braunschweig / Göttingen,Hannover Hbf,landesnahverkehrsgesellschaft-niedersachsen-mbh,LNVG,RB Nord,33,32,105,105,6,6,7.176216152468249,7.156933569148699
Biberach (Riß),Baden-Württemberg,48.101845,9.793127,Knotenbahnhof,Regionaler Knoten,3.0,Ulm,Stuttgart Hbf,nahverkehrsgesellschaft-baden-wurttemberg-mbh,NVBW,RB Südwest,0,0,57,57,0,0,0.0,0.0
Bischofswiesen,Bayern,47.65189,12.960141,Zubringerbahnhof,ländlicher Zubringer,2.0,Rosenheim,München Hbf,bayerische-eisenbahngesellschaft-mbh,BEG,RB Süd,52,48,41,42,31,28,1.118579238228174,1.094808783202347
Böblingen,Baden-Württemberg,48.687758,9.004128,Knotenbahnhof,Regionaler Knoten,5.0,Stuttgart,Stuttgart Hbf,nahverkehrsgesellschaft-baden-wurttemberg-mbh,NVBW,RB Südwest,729,791,267,316,102,118,20.194548786968994,18.261453299215653
Bondorf (b Herrenberg),Baden-Württemberg,48.523552,8.827662,Knotenbahnhof,Regionaler Knoten,3.0,Karlsruhe,Mannheim Hbf,nahverkehrsgesellschaft-baden-wurttemberg-mbh,NVBW,RB Südwest,841,875,232,250,99,110,18.393095316106567,18.21980918673912
Bonn-Beuel,Nordrhein-Westfalen,50.738476,7.127657,Knotenbahnhof,Regionaler Knoten,3.0,Köln,Köln Hbf,zweckverband-nahverkehr-rheinland-gmbh,NVR,RB West,1167,1153,688,689,54,55,26.69101049650168,26.604886508451763
Bredstedt,Schleswig-Holstein,54.621166,8.970336,Zubringerbahnhof,ländlicher Zubringer,2.0,Schleswig-Holstein,Kiel Hbf,nahverkehrsverbund-schleswig-holstein-gmbh,NAH.SH,RB Nord,301,232,199,220,51,47,10.289784215535802,7.11356934487163
Bremerhaven-Lehe,Bremen,53.566324,8.600657,Zubringerbahnhof,Regionaler Zubringer,2.0,Bremen / Osnabrück,Bremen Hbf,senat-fur-umwelt-bau-verkehr-und-europa-bremen,SUBV,RB Nord,0,52,1,46,0,21,0.0,3.739332653783583
Coburg,Bayern,50.2629273,10.9573281,Knotenbahnhof,Regionaler Knoten,5.0,Nordfranken,Nürnberg Hbf,bayerische-eisenbahngesellschaft-mbh,BEG,RB Süd,2762,2849,218,218,199,206,41.1550921155338,41.10440554136983
Diepholz,Niedersachsen,52.604771,8.380334,Zubringerbahnhof,Regionaler Zubringer,3.0,Bremen / Osnabrück,Bremen Hbf,landesnahverkehrsgesellschaft-niedersachsen-mbh,LNVG,RB Nord,1113,1138,208,200,103,98,21.30700630713933,21.675694073718866
Ellwangen,Baden-Württemberg,48.964121,10.129681,Zubringerbahnhof,Regionaler Zubringer,3.0,Ulm,Stuttgart Hbf,nahverkehrsgesellschaft-baden-wurttemberg-mbh,NVBW,RB Südwest,3260,3668,565,565,454,505,37.149037345468585,37.66744890447052
Emden Hbf,Niedersachsen,53.369036,7.195176,Knotenbahnhof,Regionaler Knoten,5.0,Bremen / Osnabrück,Bremen Hbf,landesnahverkehrsgesellschaft-niedersachsen-mbh,LNVG,RB Nord,8091,4234,1114,1116,730,642,71.55809120749853,42.54656224501545
Engen,Baden-Württemberg,47.856347,8.772786,Knotenbahnhof,Regionaler Knoten,3.0,Friedrichshafen,Stuttgart Hbf,nahverkehrsgesellschaft-baden-wurttemberg-mbh,NVBW,RB Südwest,537,558,264,307,100,103,13.924862633230715,14.082122664676886
Erkelenz,Nordrhein-Westfalen,51.076564,6.32172,Zubringerbahnhof,Regionaler Zubringer,2.0,Düsseldorf,Duisburg Hbf,zweckverband-nahverkehr-rheinland-gmbh,NVR,RB West,350,344,103,103,17,17,15.59974817228651,15.454269938652802
Erlangen,Bayern,49.5958303,11.0016382,Knotenbahnhof,Großstadtknoten,4.0,Nürnberg,Nürnberg Hbf,bayerische-eisenbahngesellschaft-mbh,BEG,RB Süd,7648,8036,1106,1113,772,808,56.47720872928691,57.485806340186194
Esslingen (Neckar),Baden-Württemberg,48.73881,9.30008,Knotenbahnhof,Regionaler Knoten,6.0,Stuttgart,Stuttgart Hbf,nahverkehrsgesellschaft-baden-wurttemberg-mbh,NVBW,RB Südwest,559,677,1862,1867,51,67,21.068478450250442,22.227504868698176
Fischen,Bayern,47.456591,10.271717,Zubringerbahnhof,ländlicher Zubringer,2.0,Augsburg,München Hbf,bayerische-eisenbahngesellschaft-mbh,BEG,RB Süd,2797,2744,147,147,145,144,30.54303438753899,30.540477609602476
Frankfurt (Main) West,Hessen,50.118864,8.639335,Knotenbahnhof,Großstadtknoten,5.0,Frankfurt a. M.,Frankfurt (Main) Hbf,rhein-main-verkehrsverbund-gmbh,RMV,RB Mitte,3187,3232,541,533,349,361,40.86470556549479,41.500458976029186
Gäufelden,Baden-Württemberg,48.559661,8.850308,Zubringerbahnhof,Regionaler Zubringer,2.0,Karlsruhe,Mannheim Hbf,nahverkehrsgesellschaft-baden-wurttemberg-mbh,NVBW,RB Südwest,630,701,240,252,93,96,17.219899186213706,17.236967590713387
Garmisch-Partenkirchen,Bayern,47.491452,11.097013,Zubringerbahnhof,Regionaler Zubringer,5.0,Rosenheim,München Hbf,bayerische-eisenbahngesellschaft-mbh,BEG,RB Süd,11,3,95,85,2,3,1.46276637793283,0.227207782928703
Geilenkirchen,Nordrhein-Westfalen,50.961039,6.124518,Knotenbahnhof,Regionaler Knoten,3.0,Düsseldorf,Duisburg Hbf,zweckverband-nahverkehr-rheinland-gmbh,NVR,RB West,330,323,105,105,19,18,15.282888557602815,15.09623661432699
Lennestadt-Grevenbrück,Nordrhein-Westfalen,51.141781,8.017977,Zubringerbahnhof,ländlicher Zubringer,2.0,Hagen,Düsseldorf Hbf,zweckverband-nahverkehr-westfalen-lippe,NWL,RB West,3310,3360,427,426,359,354,32.110956309620306,33.578987114703914
Gütersloh Hbf,Nordrhein-Westfalen,51.906941,8.385071,Knotenbahnhof,Regionaler Knoten,4.0,Bielefeld,Dortmund Hbf,zweckverband-nahverkehr-westfalen-lippe,NWL,RB West,6045,5996,708,707,500,509,50.698219661723265,51.280628454972685
Hamburg Dammtor,Hamburg,53.560751,9.989566,Knotenbahnhof,Großstadtknoten,4.0,Hamburg,Hamburg Hbf,hamburger-verkehrsverbund-gmbh,BWVI,RB Nord,26549,28507,3227,3165,1926,2085,117.09529477180608,126.6007077030685
Hamburg Hbf,Hamburg,53.552736,10.006909,Metropolbahnhof,Metropolbahnhof,12.0,Hamburg,Hamburg Hbf,hamburger-verkehrsverbund-gmbh,BWVI,RB Nord,58331,50639,6212,6425,4234,4556,207.49631264250988,160.3975377923836
Hamburg-Altona,Hamburg,53.552695,9.935175,Knotenbahnhof,Großstadtknoten,12.0,Hamburg,Hamburg Hbf,hamburger-verkehrsverbund-gmbh,BWVI,RB Nord,21480,3873,2327,2075,1382,814,108.86789643675306,35.31886679291305
Hamburg-Bergedorf,Hamburg,53.489832,10.206171,Knotenbahnhof,Großstadtknoten,5.0,Hamburg,Hamburg Hbf,hamburger-verkehrsverbund-gmbh,BWVI,RB Nord,167,170,87,82,38,41,6.905664480090891,7.2310949024842355
Hammerau,Bayern,47.795883,12.946134,Zubringerbahnhof,ländlicher Zubringer,2.0,Rosenheim,München Hbf,bayerische-eisenbahngesellschaft-mbh,BEG,RB Süd,102,97,42,42,35,30,2.1768500081972006,2.393977150471628
Heppenheim (Bergstr),Hessen,49.641553,8.633379,Knotenbahnhof,Regionaler Knoten,2.0,Darmstadt,Frankfurt (Main) Hbf,verkehrsverbund-rhein-neckar-gmbh,VRN,RB Mitte,188,169,43,43,24,22,8.89628937043806,8.740696683677886
Herrenberg,Baden-Württemberg,48.593991,8.862662,Knotenbahnhof,Regionaler Knoten,6.0,Stuttgart,Stuttgart Hbf,nahverkehrsgesellschaft-baden-wurttemberg-mbh,NVBW,RB Südwest,927,888,290,298,138,115,20.96210706333712,17.87207895839727
Herzogenrath,Nordrhein-Westfalen,50.870916,6.094486,Knotenbahnhof,Regionaler Knoten,4.0,Düsseldorf,Duisburg Hbf,zweckverband-nahverkehr-rheinland-gmbh,NVR,RB West,217,237,46,46,8,9,13.453893353851575,14.143655650823876
Hünfeld,Hessen,50.673271,9.762453,Zubringerbahnhof,Regionaler Zubringer,3.0,Kassel,Kassel-Wilhelmshöhe,rhein-main-verkehrsverbund-gmbh,RMV,RB Mitte,0,0,48,48,0,0,0.0,0.0
Siegen-Weidenau,Nordrhein-Westfalen,50.895966,8.029842,Zubringerbahnhof,Regionaler Zubringer,2.0,Hagen,Düsseldorf Hbf,zweckverband-nahverkehr-westfalen-lippe,NWL,RB West,3680,3683,420,427,370,363,38.53380854133492,38.5434430278661
Immenstadt,Bayern,47.559203,10.213999,Knotenbahnhof,Regionaler Knoten,3.0,Augsburg,München Hbf,bayerische-eisenbahngesellschaft-mbh,BEG,RB Süd,2616,2724,147,147,120,136,29.656680080650585,32.70207384963002
Itzehoe,Schleswig-Holstein,53.923873,9.510287,Knotenbahnhof,Regionaler Knoten,4.0,Schleswig-Holstein,Kiel Hbf,nahverkehrsverbund-schleswig-holstein-gmbh,NAH.SH,RB Nord,6095,6301,599,593,393,396,56.83301995329228,61.133872757855684
Karlsruhe-Durlach,Baden-Württemberg,49.002328,8.462822,Knotenbahnhof,Großstadtknoten,8.0,Karlsruhe,Mannheim Hbf,nahverkehrsgesellschaft-baden-wurttemberg-mbh,NVBW,RB Südwest,734,571,245,226,66,32,18.52151913802232,17.68741056125617
Kassel-Wilhelmshöhe,Hessen,51.313114,9.446898,Knotenbahnhof,Großstadtknoten,9.0,Kassel,Kassel-Wilhelmshöhe,nordhessischer-verkehrsverbund-mbh,NVV,RB Mitte,30984,33685,4884,5016,2196,2606,147.47816700848304,147.15546423102492
Keitum,Schleswig-Holstein,54.888814,8.368969,Zubringerbahnhof,Regionaler Zubringer,2.0,Schleswig-Holstein,Kiel Hbf,nahverkehrsverbund-schleswig-holstein-gmbh,NAH.SH,RB Nord,151,194,48,47,18,23,6.922026463009942,7.106693174859255
Klanxbüll,Schleswig-Holstein,54.861997,8.676454,Zubringerbahnhof,Regionaler Zubringer,2.0,Schleswig-Holstein,Kiel Hbf,nahverkehrsverbund-schleswig-holstein-gmbh,NAH.SH,RB Nord,253,313,48,48,31,33,7.993985993028608,8.47270858581492
Köln/Bonn Flughafen,Nordrhein-Westfalen,50.878901,7.119302,Knotenbahnhof,Großstadtknoten,4.0,Köln,Köln Hbf,zweckverband-nahverkehr-rheinland-gmbh,NVR,RB West,1831,1868,354,357,227,245,35.895985043693976,35.89041904279074
Köln Süd,Nordrhein-Westfalen,50.9273,6.938059,Knotenbahnhof,Regionaler Knoten,4.0,Köln,Köln Hbf,zweckverband-nahverkehr-rheinland-gmbh,NVR,RB West,90,86,55,55,3,3,9.594295443152928,9.536991598728015
Köln Messe/Deutz,Nordrhein-Westfalen,50.940874,6.975001,Knotenbahnhof,Großstadtknoten,10.0,Köln,Köln Hbf,zweckverband-nahverkehr-rheinland-gmbh,NVR,RB West,30149,30250,5720,5639,2524,2642,129.39193361955668,123.96668918853295
Konstanz,Baden-Württemberg,47.658754,9.177312,Knotenbahnhof,Regionaler Knoten,3.0,Friedrichshafen,Stuttgart Hbf,nahverkehrsgesellschaft-baden-wurttemberg-mbh,NVBW,RB Südwest,176,82,152,276,10,29,11.871147821664604,2.5475449486439303
Kronach,Bayern,50.239612,11.320115,Zubringerbahnhof,Regionaler Zubringer,5.0,Nordfranken,Nürnberg Hbf,bayerische-eisenbahngesellschaft-mbh,BEG,RB Süd,1798,1811,281,281,164,192,24.395852503598967,24.40025015773531
Hannover-Messe / Laatzen,Niedersachsen,52.316899,9.792863,Zubringerbahnhof,Regionaler Zubringer,6.0,Hannover,Hannover Hbf,region-hannover,RH,RB Nord,378,437,458,457,25,31,14.655841783189457,16.02607690884041
Langenhorn (Schlesw),Schleswig-Holstein,54.685934,8.946413,Zubringerbahnhof,ländlicher Zubringer,2.0,Schleswig-Holstein,Kiel Hbf,nahverkehrsverbund-schleswig-holstein-gmbh,NAH.SH,RB Nord,630,550,278,320,119,85,12.72629194380461,12.128778315522224
Limburg Süd,Hessen,50.382498,8.096112,Zubringerbahnhof,Regionaler Zubringer,2.0,Gießen,Kassel-Wilhelmshöhe,rhein-main-verkehrsverbund-gmbh,RMV,RB Mitte,8308,9221,2501,2461,834,970,70.11098253205807,73.11973341576673
Lingen (Ems),Niedersachsen,52.519867,7.321731,Zubringerbahnhof,Regionaler Zubringer,2.0,Bremen / Osnabrück,Bremen Hbf,landesnahverkehrsgesellschaft-niedersachsen-mbh,LNVG,RB Nord,6216,5658,779,715,481,446,58.20492219033252,57.4381423426162
Ludwigsstadt,Bayern,50.486583,11.382989,Zubringerbahnhof,ländlicher Zubringer,3.0,Nordfranken,Nürnberg Hbf,bayerische-eisenbahngesellschaft-mbh,BEG,RB Süd,1719,1717,282,282,138,181,24.860282231025245,24.772842730025424
Marienhafe,Niedersachsen,53.5192358,7.27436006,Zubringerbahnhof,ländlicher Zubringer,2.0,Bremen / Osnabrück,Bremen Hbf,landesnahverkehrsgesellschaft-niedersachsen-mbh,LNVG,RB Nord,648,681,200,206,100,120,15.901735188928123,15.87839106219886
Meppen,Niedersachsen,52.696021,7.298015,Zubringerbahnhof,Regionaler Zubringer,3.0,Bremen / Osnabrück,Bremen Hbf,landesnahverkehrsgesellschaft-niedersachsen-mbh,LNVG,RB Nord,5558,5598,780,778,432,469,57.01458339803854,56.77110277145687
Müllheim (Baden),Baden-Württemberg,47.809743,7.599332,Knotenbahnhof,Regionaler Knoten,4.0,Freiburg,Freiburg (Breisgau) Hbf,nahverkehrsgesellschaft-baden-wurttemberg-mbh,NVBW,RB Südwest,971,988,27,27,24,25,40.73977595335233,39.96369434995801
München-Pasing,Bayern,48.149852,11.461872,Knotenbahnhof,Großstadtknoten,9.0,München,München Hbf,bayerische-eisenbahngesellschaft-mbh,BEG,RB Süd,22953,24016,3025,3374,1816,2435,120.35178714695148,120.81752934975002
Murnau,Bayern,47.682266,11.192628,Zubringerbahnhof,Regionaler Zubringer,4.0,Rosenheim,München Hbf,bayerische-eisenbahngesellschaft-mbh,BEG,RB Süd,30,29,103,102,8,9,2.0371750034756397,2.026712027214842
Niebüll,Schleswig-Holstein,54.789605,8.834572,Knotenbahnhof,Regionaler Knoten,6.0,Schleswig-Holstein,Kiel Hbf,nahverkehrsverbund-schleswig-holstein-gmbh,NAH.SH,RB Nord,11089,13614,1794,1966,593,737,77.13129330167348,78.45617934837938
Norddeich,Niedersachsen,53.621579,7.160824,Zubringerbahnhof,ländlicher Zubringer,2.0,Bremen / Osnabrück,Bremen Hbf,landesnahverkehrsgesellschaft-niedersachsen-mbh,LNVG,RB Nord,1969,1856,407,448,218,231,36.13537148456836,38.85524633329823
Oberndorf (Neckar),Baden-Württemberg,48.295669,8.575514,Zubringerbahnhof,ländlicher Zubringer,3.0,Freiburg,Freiburg (Breisgau) Hbf,nahverkehrsgesellschaft-baden-wurttemberg-mbh,NVBW,RB Südwest,875,743,268,310,103,104,18.61633156360798,17.920895763010474
Oberstdorf,Bayern,47.411032,10.278097,Zubringerbahnhof,Regionaler Zubringer,5.0,Augsburg,München Hbf,bayerische-eisenbahngesellschaft-mbh,BEG,RB Süd,2446,222,91,58,85,55,30.723640239079202,2.017778127403648
Westerstede-Ocholt,Niedersachsen,53.202166,7.886468,Zubringerbahnhof,ländlicher Zubringer,3.0,Bremen / Osnabrück,Bremen Hbf,landesnahverkehrsgesellschaft-niedersachsen-mbh,LNVG,RB Nord,3124,3318,616,622,434,471,35.988910593990276,36.26097903688202
Osterholz-Scharmbeck,Niedersachsen,53.222776,8.797434,Knotenbahnhof,Regionaler Knoten,2.0,Bremen / Osnabrück,Bremen Hbf,landesnahverkehrsgesellschaft-niedersachsen-mbh,LNVG,RB Nord,89,121,47,47,19,33,5.711293322475756,8.234985496281054
Papenburg (Ems),Niedersachsen,53.089706,7.386708,Zubringerbahnhof,Regionaler Zubringer,2.0,Bremen / Osnabrück,Bremen Hbf,landesnahverkehrsgesellschaft-niedersachsen-mbh,LNVG,RB Nord,5035,5276,721,771,349,423,56.558270167748105,57.30457176848519
Peine,Niedersachsen,52.318942,10.232145,Zubringerbahnhof,Regionaler Zubringer,2.0,Braunschweig / Göttingen,Hannover Hbf,regionalverband-grossraum-braunschweig,RVB,RB Nord,384,340,128,138,63,67,11.576426215032683,10.513328648232626
Piding,Bayern,47.759543,12.91153,Zubringerbahnhof,Regionaler Zubringer,2.0,Rosenheim,München Hbf,bayerische-eisenbahngesellschaft-mbh,BEG,RB Süd,80,70,42,42,33,25,1.791708869664742,1.9959308197927037
Plettenberg,Nordrhein-Westfalen,51.23193,7.868913,Zubringerbahnhof,ländlicher Zubringer,3.0,Hagen,Düsseldorf Hbf,zweckverband-nahverkehr-westfalen-lippe,NWL,RB West,3476,3521,426,426,370,369,31.302533362660203,31.544827538400348
Prien am Chiemsee,Bayern,47.855513,12.346615,Knotenbahnhof,Regionaler Knoten,4.0,Rosenheim,München Hbf,bayerische-eisenbahngesellschaft-mbh,BEG,RB Süd,158,145,87,88,31,28,5.772351712845336,5.555020276907631
Ravensburg,Baden-Württemberg,47.784481,9.6061,Knotenbahnhof,Regionaler Knoten,3.0,Friedrichshafen,Stuttgart Hbf,nahverkehrsgesellschaft-baden-wurttemberg-mbh,NVBW,RB Südwest,0,0,57,57,0,0,0.0,0.0
Schorndorf,Baden-Württemberg,48.80715,9.52631,Knotenbahnhof,Regionaler Knoten,6.0,Stuttgart,Stuttgart Hbf,nahverkehrsgesellschaft-baden-wurttemberg-mbh,NVBW,RB Südwest,861,877,145,163,115,115,14.852140744957696,14.632111557297359
Siegburg/Bonn,Nordrhein-Westfalen,50.793915,7.203026,Knotenbahnhof,Regionaler Knoten,4.0,Köln,Köln Hbf,zweckverband-nahverkehr-rheinland-gmbh,NVR,RB West,21265,23287,2988,2994,1684,1956,119.03709538955655,120.93958979184688
Sonthofen,Bayern,47.513241,10.272344,Zubringerbahnhof,Regionaler Zubringer,3.0,Augsburg,München Hbf,bayerische-eisenbahngesellschaft-mbh,BEG,RB Süd,2758,2723,147,147,144,139,29.849637969492825,29.876026805652565
Spaichingen,Baden-Württemberg,48.068987,8.740147,Zubringerbahnhof,ländlicher Zubringer,3.0,Freiburg,Freiburg (Breisgau) Hbf,nahverkehrsgesellschaft-baden-wurttemberg-mbh,NVBW,RB Südwest,580,649,239,259,103,101,14.182739221275478,14.629206103620557
Sulz (Neckar),Baden-Württemberg,48.366485,8.636748,Zubringerbahnhof,ländlicher Zubringer,2.0,Freiburg,Freiburg (Breisgau) Hbf,nahverkehrsgesellschaft-baden-wurttemberg-mbh,NVBW,RB Südwest,856,859,272,301,114,117,18.5335878834809,18.32087178660837
Triberg,Baden-Württemberg,48.140004,8.236806,Zubringerbahnhof,ländlicher Zubringer,3.0,Freiburg,Freiburg (Breisgau) Hbf,nahverkehrsgesellschaft-baden-wurttemberg-mbh,NVBW,RB Südwest,165,141,111,111,26,25,6.603416927846694,6.357235460493577
Übersee,Bayern,47.822047,12.487338,Zubringerbahnhof,ländlicher Zubringer,3.0,Rosenheim,München Hbf,bayerische-eisenbahngesellschaft-mbh,BEG,RB Süd,211,183,43,43,37,36,5.747935254499869,5.669857742633886
Vaihingen (Enz),Baden-Württemberg,48.948118,8.957632,Knotenbahnhof,Regionaler Knoten,4.0,Mannheim,Mannheim Hbf,nahverkehrsgesellschaft-baden-wurttemberg-mbh,NVBW,RB Südwest,6751,7146,907,928,531,597,49.753130716841184,51.05751410029205
Verden (Aller),Niedersachsen,52.920818,9.237855,Knotenbahnhof,Regionaler Knoten,5.0,Bremen / Osnabrück,Bremen Hbf,landesnahverkehrsgesellschaft-niedersachsen-mbh,LNVG,RB Nord,3340,3154,671,670,435,439,38.67182851238691,37.990633636487594
Werdohl,Nordrhein-Westfalen,51.259485,7.757544,Zubringerbahnhof,Regionaler Zubringer,2.0,Hagen,Düsseldorf Hbf,zweckverband-nahverkehr-westfalen-lippe,NWL,RB West,3486,3471,426,425,365,358,31.66894653190879,32.21393848324188
Westerland (Sylt),Schleswig-Holstein,54.906839,8.310925,Zubringerbahnhof,Regionaler Zubringer,5.0,Schleswig-Holstein,Kiel Hbf,nahverkehrsverbund-schleswig-holstein-gmbh,NAH.SH,RB Nord,3705,1762,409,342,193,176,41.43727289750429,26.15895776677828
Wiesloch-Walldorf,Baden-Württemberg,49.291353,8.664146,Knotenbahnhof,Regionaler Knoten,3.0,Mannheim,Mannheim Hbf,nahverkehrsgesellschaft-baden-wurttemberg-mbh,NVBW,RB Südwest,1401,1325,601,580,141,143,41.088845216410206,40.85067330283508
Wolfsburg Hbf,Niedersachsen,52.429498,10.787784,Knotenbahnhof,Großstadtknoten,6.0,Braunschweig / Göttingen,Hannover Hbf,regionalverband-grossraum-braunschweig,RVB,RB Nord,32455,34776,4727,4706,2428,2819,127.66254228514359,130.31008412066632
Neu-Ulm,Bayern,48.393039,10.004823,Knotenbahnhof,Regionaler Knoten,4.0,Augsburg,München Hbf,bayerische-eisenbahngesellschaft-mbh,BEG,RB Süd,61,63,85,90,15,19,3.419718150995598,3.184558704344158
Norddeich Mole,Niedersachsen,53.624315,7.158806,Zubringerbahnhof,ländlicher Zubringer,1.0,Bremen / Osnabrück,Bremen Hbf,landesnahverkehrsgesellschaft-niedersachsen-mbh,LNVG,RB Nord,1534,247,277,269,151,80,28.509671721465384,5.113777663955254
Angermünde,Brandenburg,53.015221,13.996361,Knotenbahnhof,Regionaler Knoten,5.0,Potsdam,Potsdam,verkehrsverbund-berlin-brandenburg-gmbh-fur-brandenburg,VBB,RB Ost,1646,1597,662,661,296,327,20.376532502554355,20.30226997031188
Bad Kleinen,Mecklenburg-Vorpommern,53.766974,11.466925,Knotenbahnhof,Regionaler Knoten,4.0,Schwerin,Rostock Hbf,verkehrsgesellschaft-mecklenburg-vorpommern-mbh,VMV,RB Ost,827,837,321,340,155,160,20.203314973675614,20.00266220902155
Bergen auf Rügen,Mecklenburg-Vorpommern,54.4205,13.417821,Zubringerbahnhof,Regionaler Zubringer,4.0,Rostock,Rostock Hbf,verkehrsgesellschaft-mecklenburg-vorpommern-mbh,VMV,RB Ost,995,1065,790,902,162,231,24.55605566909171,24.55306472161122
Berlin-Lichtenberg,Berlin,52.5101355,13.4966934,Knotenbahnhof,Großstadtknoten,8.0,Berlin Regional- und S-Bahnhöfe,Berlin Ostbahnhof,verkehrsverbund-berlin-brandenburg-gmbh-fur-berlin,VBB Berlin,RB Ost,86,84,203,205,18,29,3.2668553155452287,2.849520302663638
Bitterfeld,Sachsen-Anhalt,51.622861,12.31685,Knotenbahnhof,Regionaler Knoten,6.0,Halle (Saale),Leipzig Hbf,nahverkehrsservice-sachsen-anhalt-gmbh,NASA,RB Südost,6350,6686,779,765,569,627,62.08640634287157,62.663026377048375
Brandenburg Hbf,Brandenburg,52.400554,12.566138,Knotenbahnhof,Regionaler Knoten,5.0,Potsdam,Potsdam,verkehrsverbund-berlin-brandenburg-gmbh-fur-brandenburg,VBB,RB Ost,902,914,211,225,123,132,19.7616751593447,19.846106231829435
Bützow,Mecklenburg-Vorpommern,53.837114,11.998194,Zubringerbahnhof,Regionaler Zubringer,3.0,Rostock,Rostock Hbf,verkehrsgesellschaft-mecklenburg-vorpommern-mbh,VMV,RB Ost,2018,2104,885,908,263,319,39.065616938308544,43.3103622794052
Cottbus Hbf,Brandenburg,51.750957,14.324162,Knotenbahnhof,Regionaler Knoten,10.0,Cottbus,Potsdam,verkehrsverbund-berlin-brandenburg-gmbh-fur-brandenburg,VBB,RB Ost,382,0,47,11,31,0,12.749453562504579,0.0
Dessau Hbf,Sachsen-Anhalt,51.839865,12.234945,Knotenbahnhof,Regionaler Knoten,7.0,Magdeburg,Magdeburg Hbf,nahverkehrsservice-sachsen-anhalt-gmbh,NASA,RB Südost,121,151,18,18,9,9,11.441953533098916,12.495358615426152
Doberlug-Kirchhain,Brandenburg,51.620576,13.564241,Zubringerbahnhof,ländlicher Zubringer,4.0,Cottbus,Potsdam,verkehrsverbund-berlin-brandenburg-gmbh-fur-brandenburg,VBB,RB Ost,3391,3393,635,632,379,404,29.143120158080595,29.12326167995296
Döbeln Hbf,Sachsen,51.126568,13.094988,Zubringerbahnhof,ländlicher Zubringer,4.0,Leipzig,Leipzig Hbf,zweckverband-verkehrsverbund-mittelsachsen,VMS,RB Südost,31,28,57,57,2,2,2.878926979167489,2.6057820804178093
Dresden Hbf,Sachsen,51.040563,13.732035,Metropolbahnhof,Metropolbahnhof,15.0,Dresden,Dresden,verkehrsbund-oberelbe-gmbh,VVO,RB Südost,9186,2619,1141,1169,772,733,59.79037564877681,21.820076248504375
Dresden-Neustadt,Sachsen,51.065899,13.740701,Knotenbahnhof,Großstadtknoten,8.0,Dresden,Dresden,verkehrsbund-oberelbe-gmbh,VVO,RB Südost,10737,11107,1801,1962,1164,1341,61.462561893109445,63.63944530737005
Eberswalde Hbf,Brandenburg,52.834021,13.797062,Knotenbahnhof,Regionaler Knoten,5.0,Potsdam,Potsdam,verkehrsverbund-berlin-brandenburg-gmbh-fur-brandenburg,VBB,RB Ost,1775,1744,600,600,281,336,21.263010476508782,20.80881198999848
Eisenach,Thüringen,50.976922,10.331986,Knotenbahnhof,Regionaler Knoten,6.0,Erfurt,Erfurt Hbf,thuringer-landesamt-fur-bau-und-verkehr,TLBV,RB Südost,7771,8269,1836,1952,832,913,69.95064265798932,70.24224712772823
Elsterwerda,Brandenburg,51.459677,13.516428,Zubringerbahnhof,Regionaler Zubringer,3.0,Cottbus,Potsdam,verkehrsverbund-berlin-brandenburg-gmbh-fur-brandenburg,VBB,RB Ost,3638,3685,802,791,435,505,30.125269559507213,30.25914698383341
Erfurt Hbf,Thüringen,50.972551,11.038499,Knotenbahnhof,Großstadtknoten,10.0,Erfurt,Erfurt Hbf,thuringer-landesamt-fur-bau-und-verkehr,TLBV,RB Südost,35068,35157,5071,5033,3050,3378,154.05320562254124,156.31296207636322
Freiberg (Sachs),Sachsen,50.908725,13.344141,Knotenbahnhof,Regionaler Knoten,4.0,Chemnitz,Dresden,zweckverband-verkehrsverbund-mittelsachsen,VMS,RB Südost,1041,877,190,200,118,112,16.66822380283769,15.727489262926367
Gera Hbf,Thüringen,50.883421,12.077092,Knotenbahnhof,Regionaler Knoten,6.0,Chemnitz,Erfurt Hbf,thuringer-landesamt-fur-bau-und-verkehr,TLBV,RB Südost,602,54,113,163,46,40,17.350427664857506,1.2742453840219705
Jena-Göschwitz,Thüringen,50.883942,11.593537,Knotenbahnhof,Regionaler Knoten,6.0,Chemnitz,Erfurt Hbf,thuringer-landesamt-fur-bau-und-verkehr,TLBV,RB Südost,2249,2148,556,561,273,298,29.20470803666995,28.623243113917326
Gotha,Thüringen,50.93907,10.712568,Knotenbahnhof,Regionaler Knoten,6.0,Erfurt,Erfurt Hbf,thuringer-landesamt-fur-bau-und-verkehr,TLBV,RB Südost,6156,6607,1269,1285,769,828,61.85577210493738,63.091042304834716
Greifswald,Mecklenburg-Vorpommern,54.092923,13.370262,Zubringerbahnhof,Regionaler Zubringer,3.0,Rostock,Rostock Hbf,verkehrsgesellschaft-mecklenburg-vorpommern-mbh,VMV,RB Ost,1372,1145,705,783,243,247,22.249000509329065,20.8684183637936
Halle (Saale) Hbf,Sachsen-Anhalt,51.477509,11.987085,Knotenbahnhof,Großstadtknoten,13.0,Halle (Saale),Leipzig Hbf,nahverkehrsservice-sachsen-anhalt-gmbh,NASA,RB Südost,24874,24745,4395,4381,2272,2603,126.31593804866687,126.85640483031769
Chemnitz Hbf,Sachsen,50.839696,12.930877,Knotenbahnhof,Großstadtknoten,13.0,Chemnitz,Dresden,zweckverband-verkehrsverbund-mittelsachsen,VMS,RB Südost,832,68,144,158,89,13,15.460421163321007,6.0530875512441416
Königs Wusterhausen,Brandenburg,52.296635,13.631472,Knotenbahnhof,Regionaler Knoten,3.0,Cottbus,Potsdam,verkehrsverbund-berlin-brandenburg-gmbh-fur-brandenburg,VBB,RB Ost,355,330,47,47,32,32,10.936195409179193,10.799535742239968
Köthen,Sachsen-Anhalt,51.751929,11.989358,Zubringerbahnhof,Regionaler Zubringer,5.0,Magdeburg,Magdeburg Hbf,nahverkehrsservice-sachsen-anhalt-gmbh,NASA,RB Südost,6168,5846,1173,1183,682,719,50.13587243331293,50.432474436038525
Leipzig Hbf,Sachsen,51.3454712,12.3820639,Metropolbahnhof,Metropolbahnhof,25.0,Leipzig,Leipzig Hbf,zweckverband-fur-den-nahverkehrsraum-leipzig,ZVNL,RB Südost,19476,15965,3905,3888,1678,1831,109.39150085169844,86.94141270158791
Ludwigslust,Mecklenburg-Vorpommern,53.334671,11.494491,Knotenbahnhof,Regionaler Knoten,5.0,Schwerin,Rostock Hbf,verkehrsgesellschaft-mecklenburg-vorpommern-mbh,VMV,RB Ost,7264,7659,2163,2148,919,993,57.06529429101326,61.742624848613666
Lübben (Spreewald),Brandenburg,51.939737,13.877182,Knotenbahnhof,Regionaler Knoten,3.0,Cottbus,Potsdam,verkehrsverbund-berlin-brandenburg-gmbh-fur-brandenburg,VBB,RB Ost,379,361,47,47,33,31,11.657064018680483,11.525220705193577
Lübbenau (Spreewald),Brandenburg,51.862169,13.9609,Zubringerbahnhof,Regionaler Zubringer,3.0,Cottbus,Potsdam,verkehrsverbund-berlin-brandenburg-gmbh-fur-brandenburg,VBB,RB Ost,347,347,47,47,30,33,11.339720860549859,12.186152496725557
Magdeburg Hbf,Sachsen-Anhalt,52.130349,11.626891,Knotenbahnhof,Großstadtknoten,9.0,Magdeburg,Magdeburg Hbf,nahverkehrsservice-sachsen-anhalt-gmbh,NASA,RB Südost,8327,7378,1323,1443,950,1078,67.53914293228365,63.384166479400065
Naumburg (Saale) Hbf,Sachsen-Anhalt,51.163071,11.796984,Knotenbahnhof,Regionaler Knoten,5.0,Halle (Saale),Leipzig Hbf,nahverkehrsservice-sachsen-anhalt-gmbh,NASA,RB Südost,1854,1906,473,470,160,177,31.833780021434322,32.28771963166497
Neustrelitz Hbf,Mecklenburg-Vorpommern,53.359255,13.074603,Knotenbahnhof,Regionaler Knoten,4.0,Rostock,Rostock Hbf,verkehrsgesellschaft-mecklenburg-vorpommern-mbh,VMV,RB Ost,1760,1869,961,958,250,326,25.603421422602494,25.748556340865488
Berlin Ostbahnhof,Berlin,52.5104881,13.4346807,Knotenbahnhof,Großstadtknoten,9.0,Berlin Fernbahnhöfe,Berlin Ostbahnhof,verkehrsverbund-berlin-brandenburg-gmbh-fur-berlin,VBB Berlin,RB Ost,29190,7788,3285,3606,1400,1829,148.84952105676732,48.05359963248145
Pasewalk,Mecklenburg-Vorpommern,53.515353,13.988875,Zubringerbahnhof,Regionaler Zubringer,4.0,Rostock,Rostock Hbf,verkehrsgesellschaft-mecklenburg-vorpommern-mbh,VMV,RB Ost,1596,1715,663,663,296,334,20.74132850175328,20.79643451691656
Prenzlau,Brandenburg,53.321608,13.866532,Zubringerbahnhof,ländlicher Zubringer,3.0,Potsdam,Potsdam,verkehrsverbund-berlin-brandenburg-gmbh-fur-brandenburg,VBB,RB Ost,1754,1769,662,638,330,344,19.98126723355686,21.371162071128833
Riesa,Sachsen,51.309654,13.287734,Knotenbahnhof,Regionaler Knoten,9.0,Leipzig,Leipzig Hbf,verkehrsbund-oberelbe-gmbh,VVO,RB Südost,6492,7162,1295,1293,797,989,51.89072803325326,51.83312643173869
Rostock Hbf,Mecklenburg-Vorpommern,54.078246,12.131079,Knotenbahnhof,Großstadtknoten,11.0,Rostock,Rostock Hbf,verkehrsgesellschaft-mecklenburg-vorpommern-mbh,VMV,RB Ost,4413,3756,1473,1452,549,703,57.598318519046046,39.411294748307405
Rudolstadt (Thür),Thüringen,50.7179313,11.3388991,Zubringerbahnhof,Regionaler Zubringer,3.0,Chemnitz,Erfurt Hbf,thuringer-landesamt-fur-bau-und-verkehr,TLBV,RB Südost,1426,1516,282,282,163,213,22.004890189267858,21.88198005595303
Saalfeld (Saale),Thüringen,50.6502734,11.3745832,Knotenbahnhof,Regionaler Knoten,7.0,Chemnitz,Erfurt Hbf,thuringer-landesamt-fur-bau-und-verkehr,TLBV,RB Südost,1540,1489,282,282,161,181,24.336531141492475,23.84142647066185
Schwerin Hbf,Mecklenburg-Vorpommern,53.634739,11.407455,Knotenbahnhof,Großstadtknoten,4.0,Schwerin,Rostock Hbf,verkehrsgesellschaft-mecklenburg-vorpommern-mbh,VMV,RB Ost,2822,3152,1449,1458,417,475,42.1954895096102,45.138992831483655
Stendal Hbf,Sachsen-Anhalt,52.594723,11.854412,Knotenbahnhof,Regionaler Knoten,8.0,Magdeburg,Magdeburg Hbf,nahverkehrsservice-sachsen-anhalt-gmbh,NASA,RB Südost,10588,11517,1758,1724,921,1090,79.44331447850125,81.29017784096348
Stralsund Hbf,Mecklenburg-Vorpommern,54.308626,13.077321,Knotenbahnhof,Regionaler Knoten,6.0,Rostock,Rostock Hbf,verkehrsgesellschaft-mecklenburg-vorpommern-mbh,VMV,RB Ost,2002,1562,1137,1214,301,418,33.116152168219884,30.27809900462601
Velgast,Mecklenburg-Vorpommern,54.277316,12.803137,Zubringerbahnhof,ländlicher Zubringer,3.0,Rostock,Rostock Hbf,verkehrsgesellschaft-mecklenburg-vorpommern-mbh,VMV,RB Ost,957,1104,671,679,130,191,24.117772728613687,24.178785602617214
Waren (Müritz),Mecklenburg-Vorpommern,53.521512,12.680678,Zubringerbahnhof,ländlicher Zubringer,3.0,Rostock,Rostock Hbf,verkehrsgesellschaft-mecklenburg-vorpommern-mbh,VMV,RB Ost,1685,1717,587,585,259,297,25.83766992525657,25.68386743438314
Weimar,Thüringen,50.991487,11.326458,Knotenbahnhof,Regionaler Knoten,5.0,Erfurt,Erfurt Hbf,thuringer-landesamt-fur-bau-und-verkehr,TLBV,RB Südost,806,849,349,309,103,136,17.948709938300055,17.736699745191498
Weißenfels,Sachsen-Anhalt,51.204615,11.970926,Zubringerbahnhof,Regionaler Zubringer,4.0,Halle (Saale),Leipzig Hbf,nahverkehrsservice-sachsen-anhalt-gmbh,NASA,RB Südost,1337,1364,382,382,138,159,23.80783709794528,23.98478011176979
Wittenberge,Brandenburg,53.003115,11.762871,Knotenbahnhof,Regionaler Knoten,5.0,Schwerin,Rostock Hbf,verkehrsverbund-berlin-brandenburg-gmbh-fur-brandenburg,VBB,RB Ost,5082,5150,1314,1311,655,667,54.12167966402263,54.34893055973722
Züssow,Mecklenburg-Vorpommern,53.973879,13.548191,Zubringerbahnhof,Regionaler Zubringer,2.0,Rostock,Rostock Hbf,verkehrsgesellschaft-mecklenburg-vorpommern-mbh,VMV,RB Ost,1127,1231,602,663,193,260,20.62586308141687,20.578808603661695
Berlin-Spandau,Berlin,52.5346481,13.1968975,Knotenbahnhof,Großstadtknoten,6.0,Berlin Fernbahnhöfe,Berlin Ostbahnhof,verkehrsverbund-berlin-brandenburg-gmbh-fur-berlin,VBB Berlin,RB Ost,57160,60973,8153,8564,4845,5553,182.39277702964583,188.82343877940357
Berlin-Wannsee,Berlin,52.4209723,13.1795275,Knotenbahnhof,Großstadtknoten,7.0,Berlin Regional- und S-Bahnhöfe,Berlin Ostbahnhof,verkehrsverbund-berlin-brandenburg-gmbh-fur-berlin,VBB Berlin,RB Ost,968,935,211,218,139,143,19.391821490738085,18.866974221690533
Berlin Zoologischer Garten,Berlin,52.507277,13.331992,Knotenbahnhof,Großstadtknoten,6.0,Berlin Regional- und S-Bahnhöfe,Berlin Ostbahnhof,verkehrsverbund-berlin-brandenburg-gmbh-fur-berlin,VBB Berlin,RB Ost,1081,945,630,659,55,51,31.227263582842237,28.10122470904391
Anklam,Mecklenburg-Vorpommern,53.856102,13.701827,Zubringerbahnhof,ländlicher Zubringer,2.0,Rostock,Rostock Hbf,verkehrsgesellschaft-mecklenburg-vorpommern-mbh,VMV,RB Ost,1020,1158,606,662,155,288,20.636008917820824,20.010935049097156
Berlin Gesundbrunnen,Berlin,52.548963,13.388513,Knotenbahnhof,Großstadtknoten,10.0,Berlin Fernbahnhöfe,Berlin Ostbahnhof,verkehrsverbund-berlin-brandenburg-gmbh-fur-berlin,VBB Berlin,RB Ost,8347,6954,2720,2831,1007,996,57.96463408176111,56.1382560444572
Berlin Südkreuz,Berlin,52.475047,13.365319,Metropolbahnhof,Metropolbahnhof,10.0,Berlin Fernbahnhöfe,Berlin Ostbahnhof,verkehrsverbund-berlin-brandenburg-gmbh-fur-berlin,VBB Berlin,RB Ost,41218,38538,5701,5802,3869,4053,153.53033448924526,148.54007319007283
Berlin Hbf,Berlin,52.525592,13.369545,Metropolbahnhof,Metropolbahnhof,14.0,Berlin Fernbahnhöfe,Berlin Ostbahnhof,verkehrsverbund-berlin-brandenburg-gmbh-fur-berlin,VBB Berlin,RB Ost,77895,70441,8474,10088,6492,7919,224.90698155199252,209.80718068202845
Ostseebad Binz,Mecklenburg-Vorpommern,54.404819,13.600507,Zubringerbahnhof,ländlicher Zubringer,3.0,Rostock,Rostock Hbf,verkehrsgesellschaft-mecklenburg-vorpommern-mbh,VMV,RB Ost,758,153,518,669,49,114,27.14599598453366,3.1236169113811654
Hermsdorf-Klosterlausnitz,Thüringen,50.903779,11.858626,Zubringerbahnhof,Regionaler Zubringer,2.0,Chemnitz,Erfurt Hbf,thuringer-landesamt-fur-bau-und-verkehr,TLBV,RB Südost,692,693,195,244,84,92,17.396084453500432,17.402484865699243
Jena Paradies,Thüringen,50.924856,11.587461,Knotenbahnhof,Regionaler Knoten,2.0,Chemnitz,Erfurt Hbf,thuringer-landesamt-fur-bau-und-verkehr,TLBV,RB Südost,1584,1729,409,426,188,211,25.53810122967428,34.023796347481856
Jena West,Thüringen,50.923286,11.577848,Knotenbahnhof,Regionaler Knoten,2.0,Chemnitz,Erfurt Hbf,thuringer-landesamt-fur-bau-und-verkehr,TLBV,RB Südost,724,768,189,191,77,105,17.529401508061927,17.515799129088713
Potsdam Hbf,Brandenburg,52.391509,13.0667031,Knotenbahnhof,Großstadtknoten,6.0,Potsdam,Potsdam,verkehrsverbund-berlin-brandenburg-gmbh-fur-brandenburg,VBB,RB Ost,832,774,221,221,117,118,19.68815981225831,19.49388959687866
Ribnitz-Damgarten West,Mecklenburg-Vorpommern,54.239176,12.436965,Zubringerbahnhof,ländlicher Zubringer,2.0,Rostock,Rostock Hbf,verkehrsgesellschaft-mecklenburg-vorpommern-mbh,VMV,RB Ost,1180,1297,1006,1001,190,235,25.400876611118516,25.359802193537227
Stadtroda,Thüringen,50.868216,11.722792,Zubringerbahnhof,ländlicher Zubringer,2.0,Chemnitz,Erfurt Hbf,thuringer-landesamt-fur-bau-und-verkehr,TLBV,RB Südost,709,654,195,236,100,74,17.217057971990915,17.4433511801923
Warnemünde,Mecklenburg-Vorpommern,54.176852,12.091271,Knotenbahnhof,Regionaler Knoten,5.0,Rostock,Rostock Hbf,verkehrsgesellschaft-mecklenburg-vorpommern-mbh,VMV,RB Ost,1071,552,306,387,100,287,19.95006405327512,6.8804253981128225
Magdeburg-Buckau,Sachsen-Anhalt,52.109204,11.63004,Zubringerbahnhof,Regionaler Zubringer,4.0,Magdeburg,Magdeburg Hbf,nahverkehrsservice-sachsen-anhalt-gmbh,NASA,RB Südost,0,0,111,111,0,0,0.0,0.0
Bernau (b Berlin),Brandenburg,52.6755689,13.5926414,Knotenbahnhof,Regionaler Knoten,4.0,Potsdam,Potsdam,verkehrsverbund-berlin-brandenburg-gmbh-fur-brandenburg,VBB,RB Ost,1454,1403,212,195,177,164,17.477388705909433,17.763687962832964
Oranienburg,Brandenburg,52.753653,13.249613,Knotenbahnhof,Regionaler Knoten,6.0,Potsdam,Potsdam,verkehrsverbund-berlin-brandenburg-gmbh-fur-brandenburg,VBB,RB Ost,2210,2422,586,586,288,344,26.90070077646249,28.265015502670476
Frankfurt am Main Flughafen Fernbahnhof,Hessen,50.053167,8.570185,Knotenbahnhof,Großstadtknoten,4.0,Frankfurt a. M.,Frankfurt (Main) Hbf,rhein-main-verkehrsverbund-gmbh,RMV,RB Mitte,56998,61007,5938,6109,4341,4825,172.60536909050987,174.00007636469545
